{
    "directed": false,
    "multigraph": false,
    "graph": {},
    "nodes": [
        {
            "latitude": -2.51,
            "longitude": -44.26,
            "location": "S\u00e3o Lu\u00eds, Maranh\u00e3o",
            "country": "Brazil",
            "id": 3
        },
        {
            "latitude": -35.119,
            "longitude": -65.27,
            "location": "San Luis, San Luis",
            "country": "Argentina",
            "id": 1
        },
        {
            "latitude": -23.59,
            "longitude": -46.57,
            "location": "S\u00e3o Paulo, S\u00e3o Paulo",
            "country": "Brazil",
            "id": 2
        },
        {
            "latitude": -32.76,
            "longitude": -55.94,
            "location": "Durazno, Durazno",
            "country": "Uruguay",
            "id": 4
        },
        {
            "latitude": -26.81,
            "longitude": -70.5,
            "location": "Caldera, Atacama Region",
            "country": "Chile",
            "id": 5
        },
        {
            "latitude": -0.94,
            "longitude": -78.93,
            "location": "Cusca, Cotopaxi",
            "country": "Ecuador",
            "id": 6
        },
        {
            "latitude": 3.62,
            "longitude": -73.48,
            "location": "San Mart\u00edn, Meta",
            "country": "Colombia",
            "id": 7
        },
        {
            "latitude": 8.51,
            "longitude": -80.78,
            "location": "Distrito Nat\u00e1, Cocl\u00e9",
            "country": "Panama",
            "id": 8
        },
        {
            "latitude": 9.92585175723692,
            "longitude": -84.0899827564916,
            "location": "San Jos\u00e9",
            "country": "Costa Rica",
            "id": 9
        },
        {
            "latitude": 15.73,
            "longitude": -90.18,
            "location": "Aldea Chib'out, Alta Verapaz",
            "country": "Guatemala",
            "id": 10
        },
        {
            "latitude": 13.006,
            "longitude": -83.59,
            "location": "Desembocadura de R\u00edo Grande (Municipio)",
            "country": "Nicaragua",
            "id": 11
        },
        {
            "latitude": 14.81,
            "longitude": -87.3,
            "location": "San Jos\u00e9 del Potrero, Comayagua",
            "country": "Honduras",
            "id": 12
        },
        {
            "latitude": 19.54,
            "longitude": -99.28,
            "location": "Atizap\u00e1n de Zaragoza, State of Mexico",
            "country": "Mexico",
            "id": 13
        },
        {
            "latitude": 25.88,
            "longitude": -80.298,
            "location": "Hialeah, Florida",
            "country": "United States",
            "id": 14
        }
    ],
    "links": [
        {
            "length": 2882.5125,
            "source": 1,
            "target": 2.0
        },
        {
            "length": 1149.45,
            "source": 1,
            "target": 5.0
        },
        {
            "length": 2937.575,
            "source": 2,
            "target": 3.0
        },
        {
            "length": 1674.875,
            "source": 2,
            "target": 4.0
        },
        {
            "length": 3434.8625,
            "source": 2,
            "target": 5.0
        },
        {
            "length": 6227.9625,
            "source": 3,
            "target": 14.0
        },
        {
            "length": 4284.0375,
            "source": 3,
            "target": 7.0
        },
        {
            "length": 6294.5875,
            "source": 5,
            "target": 8.0
        },
        {
            "length": 3844.7375,
            "source": 6,
            "target": 14.0
        },
        {
            "length": 1248.87,
            "source": 6,
            "target": 7.0
        },
        {
            "length": 1135.455,
            "source": 7,
            "target": 8.0
        },
        {
            "length": 708.33,
            "source": 8,
            "target": 9.0
        },
        {
            "length": 2333.9,
            "source": 8,
            "target": 14.0
        },
        {
            "length": 1134.285,
            "source": 8,
            "target": 11.0
        },
        {
            "length": 1500.0,
            "source": 8,
            "target": 12.0
        },
        {
            "length": 3676.05,
            "source": 8,
            "target": 13.0
        },
        {
            "length": 1733.475,
            "source": 8,
            "target": 10.0
        }
    ]
}