{
    "directed": false,
    "multigraph": false,
    "graph": {},
    "nodes": [
        {
            "latitude": 41.76,
            "longitude": -72.69,
            "location": "Hartford",
            "country": "United States of America (the)",
            "id": 1
        },
        {
            "latitude": 40.71,
            "longitude": -74.01,
            "location": "New York City",
            "country": "United States of America (the)",
            "id": 2
        },
        {
            "latitude": 41.85,
            "longitude": -87.65,
            "location": "Chicago",
            "country": "United States of America (the)",
            "id": 3
        },
        {
            "latitude": 41.5,
            "longitude": -81.7,
            "location": "Cleveland",
            "country": "United States of America (the)",
            "id": 4
        },
        {
            "latitude": 36.07,
            "longitude": -79.79,
            "location": "Greensboro",
            "country": "United States of America (the)",
            "id": 5
        },
        {
            "latitude": 33.75,
            "longitude": -84.39,
            "location": "Atlanta",
            "country": "United States of America (the)",
            "id": 6
        },
        {
            "latitude": 38.9,
            "longitude": -77.04,
            "location": "Washington, D.C.",
            "country": "United States of America (the)",
            "id": 7
        },
        {
            "latitude": 38.97,
            "longitude": -77.34,
            "location": "Reston",
            "country": "United States of America (the)",
            "id": 8
        },
        {
            "latitude": 32.78,
            "longitude": -96.81,
            "location": "Dallas",
            "country": "United States of America (the)",
            "id": 9
        },
        {
            "latitude": 38.63,
            "longitude": -90.2,
            "location": "St. Louis",
            "country": "United States of America (the)",
            "id": 10
        },
        {
            "latitude": 47.61,
            "longitude": -122.33,
            "location": "Seattle",
            "country": "United States of America (the)",
            "id": 11
        },
        {
            "latitude": 39.74,
            "longitude": -104.98,
            "location": "Denver",
            "country": "United States of America (the)",
            "id": 12
        },
        {
            "latitude": 37.77,
            "longitude": -122.42,
            "location": "San Francisco",
            "country": "United States of America (the)",
            "id": 13
        },
        {
            "latitude": 37.34,
            "longitude": -121.89,
            "location": "San Jose",
            "country": "United States of America (the)",
            "id": 14
        },
        {
            "latitude": 34.05,
            "longitude": -118.24,
            "location": "Los Angeles",
            "country": "United States of America (the)",
            "id": 15
        },
        {
            "latitude": 35.08,
            "longitude": -106.65,
            "location": "Albuquerque",
            "country": "United States of America (the)",
            "id": 16
        },
        {
            "latitude": 21.31,
            "longitude": -157.86,
            "location": "Honolulu",
            "country": "United States of America (the)",
            "id": 17
        },
        {
            "latitude": 29.76,
            "longitude": -95.36,
            "location": "Houston",
            "country": "United States of America (the)",
            "id": 18
        }
    ],
    "links": [
        {
            "length": 240.9995117259535,
            "source": 1,
            "target": 2.0
        },
        {
            "length": 1123.590502410244,
            "source": 1,
            "target": 4.0
        },
        {
            "length": 975.077114932617,
            "source": 2,
            "target": 4.0
        },
        {
            "length": 491.7553096743694,
            "source": 2,
            "target": 7.0
        },
        {
            "length": 515.7906472027208,
            "source": 2,
            "target": 8.0
        },
        {
            "length": 743.4071200946746,
            "source": 3,
            "target": 4.0
        },
        {
            "length": 627.5025611615271,
            "source": 3,
            "target": 10.0
        },
        {
            "length": 1843.716434385458,
            "source": 3,
            "target": 12.0
        },
        {
            "length": 738.5136638534078,
            "source": 5,
            "target": 6.0
        },
        {
            "length": 595.9813603183608,
            "source": 5,
            "target": 7.0
        },
        {
            "length": 1500.0,
            "source": 6,
            "target": 18.0
        },
        {
            "length": 40.63570747941723,
            "source": 7,
            "target": 8.0
        },
        {
            "length": 2349.622138347818,
            "source": 8,
            "target": 9.0
        },
        {
            "length": 1500.0,
            "source": 8,
            "target": 10.0
        },
        {
            "length": 1323.434150934681,
            "source": 9,
            "target": 10.0
        },
        {
            "length": 2913.723191579052,
            "source": 9,
            "target": 14.0
        },
        {
            "length": 544.4600499700148,
            "source": 9,
            "target": 18.0
        },
        {
            "length": 2051.773895986218,
            "source": 11,
            "target": 12.0
        },
        {
            "length": 1500.0,
            "source": 11,
            "target": 13.0
        },
        {
            "length": 1906.958816527235,
            "source": 12,
            "target": 13.0
        },
        {
            "length": 100.2750862366293,
            "source": 13,
            "target": 14.0
        },
        {
            "length": 838.7553033988663,
            "source": 13,
            "target": 15.0
        },
        {
            "length": 1500.0,
            "source": 15,
            "target": 16.0
        },
        {
            "length": 6483.773338999908,
            "source": 16,
            "target": 17.0
        },
        {
            "length": 1515.610552563167,
            "source": 16,
            "target": 18.0
        }
    ]
}