{
    "directed": false,
    "multigraph": false,
    "graph": {},
    "nodes": [
        {
            "latitude": 49.82,
            "longitude": 19.05,
            "location": "Bielsko-Biala",
            "country": "Poland",
            "id": 1
        },
        {
            "latitude": 52.23,
            "longitude": 21.01,
            "location": "Warsaw",
            "country": "Poland",
            "id": 2
        },
        {
            "latitude": 51.4,
            "longitude": 21.15,
            "location": "Radom",
            "country": "Poland",
            "id": 3
        },
        {
            "latitude": 53.13,
            "longitude": 23.15,
            "location": "Bialystok",
            "country": "Poland",
            "id": 4
        },
        {
            "latitude": 51.25,
            "longitude": 22.57,
            "location": "Lublin",
            "country": "Poland",
            "id": 5
        },
        {
            "latitude": 51.75,
            "longitude": 19.47,
            "location": "Lodz",
            "country": "Poland",
            "id": 6
        },
        {
            "latitude": 51.42,
            "longitude": 21.97,
            "location": "Pulawy",
            "country": "Poland",
            "id": 7
        },
        {
            "latitude": 50.04,
            "longitude": 22.0,
            "location": "Rzeszow",
            "country": "Poland",
            "id": 8
        },
        {
            "latitude": 50.87,
            "longitude": 20.63,
            "location": "Kielce",
            "country": "Poland",
            "id": 9
        },
        {
            "latitude": 54.15,
            "longitude": 19.41,
            "location": "Elblag",
            "country": "Poland",
            "id": 10
        },
        {
            "latitude": 54.11,
            "longitude": 22.93,
            "location": "Suwalki",
            "country": "Poland",
            "id": 11
        },
        {
            "latitude": 52.23,
            "longitude": 20.24,
            "location": "Sochaczew",
            "country": "Poland",
            "id": 12
        },
        {
            "latitude": 52.74,
            "longitude": 15.23,
            "location": "Gorzow Wielkopolski",
            "country": "Poland",
            "id": 13
        },
        {
            "latitude": 50.72,
            "longitude": 23.25,
            "location": "Zamosc",
            "country": "Poland",
            "id": 14
        },
        {
            "latitude": 50.8,
            "longitude": 19.12,
            "location": "Czestochowa",
            "country": "Poland",
            "id": 15
        },
        {
            "latitude": 50.08,
            "longitude": 19.92,
            "location": "Krakow",
            "country": "Poland",
            "id": 16
        },
        {
            "latitude": 51.1,
            "longitude": 17.03,
            "location": "Wroclaw",
            "country": "Poland",
            "id": 17
        },
        {
            "latitude": 50.67,
            "longitude": 17.95,
            "location": "Opole",
            "country": "Poland",
            "id": 18
        },
        {
            "latitude": 50.28,
            "longitude": 18.67,
            "location": "Gliwice",
            "country": "Poland",
            "id": 19
        },
        {
            "latitude": 53.78,
            "longitude": 20.48,
            "location": "Olsztyn",
            "country": "Poland",
            "id": 20
        },
        {
            "latitude": 54.35,
            "longitude": 18.65,
            "location": "Gdansk",
            "country": "Poland",
            "id": 21
        },
        {
            "latitude": 54.19,
            "longitude": 16.17,
            "location": "Koszalin",
            "country": "Poland",
            "id": 22
        },
        {
            "latitude": 53.43,
            "longitude": 14.55,
            "location": "Szczecin",
            "country": "Poland",
            "id": 23
        },
        {
            "latitude": 51.94,
            "longitude": 15.51,
            "location": "Zielona Gora",
            "country": "Poland",
            "id": 24
        },
        {
            "latitude": 52.42,
            "longitude": 16.97,
            "location": "Poznan",
            "country": "Poland",
            "id": 25
        },
        {
            "latitude": 53.12,
            "longitude": 18.01,
            "location": "Bydgoszcz",
            "country": "Poland",
            "id": 26
        },
        {
            "latitude": 53.01,
            "longitude": 18.6,
            "location": "Torun",
            "country": "Poland",
            "id": 27
        }
    ],
    "links": [
        {
            "length": 86.85011346655239,
            "source": 1,
            "target": 19
        },
        {
            "length": 102.9498356633842,
            "source": 1,
            "target": 16
        },
        {
            "length": 139.1882096147356,
            "source": 2,
            "target": 3
        },
        {
            "length": 413.0025180279077,
            "source": 2,
            "target": 25
        },
        {
            "length": 263.3489639066166,
            "source": 2,
            "target": 4
        },
        {
            "length": 177.2765341606382,
            "source": 2,
            "target": 6
        },
        {
            "length": 103.8090366128347,
            "source": 3,
            "target": 9
        },
        {
            "length": 85.3739547448099,
            "source": 3,
            "target": 7
        },
        {
            "length": 164.8989742731337,
            "source": 4,
            "target": 11
        },
        {
            "length": 113.6321014438478,
            "source": 5,
            "target": 14
        },
        {
            "length": 68.65249769807909,
            "source": 5,
            "target": 7
        },
        {
            "length": 112.5351594181881,
            "source": 6,
            "target": 12
        },
        {
            "length": 279.5207502149059,
            "source": 6,
            "target": 25
        },
        {
            "length": 162.6062920330432,
            "source": 6,
            "target": 15
        },
        {
            "length": 174.7534644807546,
            "source": 8,
            "target": 14
        },
        {
            "length": 222.8153948007431,
            "source": 8,
            "target": 16
        },
        {
            "length": 151.7951398283662,
            "source": 9,
            "target": 16
        },
        {
            "length": 121.7814953135299,
            "source": 10,
            "target": 20
        },
        {
            "length": 81.22620749412314,
            "source": 10,
            "target": 21
        },
        {
            "length": 246.7145911780555,
            "source": 11,
            "target": 20
        },
        {
            "length": 334.8191775924115,
            "source": 12,
            "target": 25
        },
        {
            "length": 133.7358325604599,
            "source": 13,
            "target": 23
        },
        {
            "length": 184.2467880845705,
            "source": 13,
            "target": 25
        },
        {
            "length": 98.9837355030138,
            "source": 15,
            "target": 19
        },
        {
            "length": 210.9792892346443,
            "source": 17,
            "target": 24
        },
        {
            "length": 120.4791984364237,
            "source": 17,
            "target": 18
        },
        {
            "length": 100.3611222375359,
            "source": 18,
            "target": 19
        },
        {
            "length": 223.5563625169812,
            "source": 21,
            "target": 27
        },
        {
            "length": 243.011643971792,
            "source": 21,
            "target": 22
        },
        {
            "length": 203.7644228347264,
            "source": 22,
            "target": 23
        },
        {
            "length": 156.986668574074,
            "source": 25,
            "target": 26
        },
        {
            "length": 61.91455731777963,
            "source": 26,
            "target": 27
        }
    ]
}