{
    "directed": false,
    "multigraph": false,
    "graph": {},
    "nodes": [
        {
            "latitude": 13.32,
            "longitude": -14.22,
            "location": "Basse Santa Su",
            "country": "Gambia (the)",
            "id": 3
        },
        {
            "latitude": 13.49,
            "longitude": -16.09,
            "location": "Kerewan",
            "country": "Gambia (the)",
            "id": 1
        },
        {
            "latitude": 13.45,
            "longitude": -16.58,
            "location": "Banjul",
            "country": "Gambia (the)",
            "id": 2
        },
        {
            "latitude": 13.43,
            "longitude": -14.65,
            "location": "Bansang",
            "country": "Gambia (the)",
            "id": 4
        },
        {
            "latitude": 13.4,
            "longitude": -16.66,
            "location": "Abuko",
            "country": "Gambia (the)",
            "id": 5
        },
        {
            "latitude": 13.44,
            "longitude": -16.68,
            "location": "Bakau",
            "country": "Gambia (the)",
            "id": 6
        },
        {
            "latitude": 13.46,
            "longitude": -16.71,
            "location": "Bakau",
            "country": "Gambia (the)",
            "id": 7
        },
        {
            "latitude": 13.48,
            "longitude": -16.68,
            "location": "Bakau",
            "country": "Gambia (the)",
            "id": 8
        },
        {
            "latitude": 13.27,
            "longitude": -16.65,
            "location": "Brikama",
            "country": "Gambia (the)",
            "id": 9
        },
        {
            "latitude": 13.36,
            "longitude": -16.69,
            "location": "Sukuta",
            "country": "Gambia (the)",
            "id": 10
        },
        {
            "latitude": 13.43,
            "longitude": -15.53,
            "location": "Soma",
            "country": "Gambia (the)",
            "id": 11
        },
        {
            "latitude": 13.57,
            "longitude": -15.6,
            "location": "Farafenni",
            "country": "Gambia (the)",
            "id": 12
        }
    ],
    "links": [
        {
            "length": 79.7596016272376,
            "source": 1,
            "target": 2.0
        },
        {
            "length": 80.57265131939667,
            "source": 1,
            "target": 12.0
        },
        {
            "length": 16.30764112863728,
            "source": 2,
            "target": 6.0
        },
        {
            "length": 213.3617100826682,
            "source": 3,
            "target": 11.0
        },
        {
            "length": 72.14726175977378,
            "source": 3,
            "target": 4.0
        },
        {
            "length": 7.418895033817087,
            "source": 5,
            "target": 6.0
        },
        {
            "length": 5.900088072205524,
            "source": 6,
            "target": 7.0
        },
        {
            "length": 6.671695598673639,
            "source": 6,
            "target": 8.0
        },
        {
            "length": 28.76962336783309,
            "source": 6,
            "target": 9.0
        },
        {
            "length": 13.44167574214923,
            "source": 6,
            "target": 10.0
        },
        {
            "length": 188.5773787521576,
            "source": 10,
            "target": 11.0
        },
        {
            "length": 25.96447188829978,
            "source": 11,
            "target": 12.0
        }
    ]
}