{
    "directed": false,
    "multigraph": false,
    "graph": {},
    "nodes": [
        {
            "latitude": 38.72,
            "longitude": -9.13,
            "location": "Lisbon",
            "country": "Portugal",
            "id": 28
        },
        {
            "latitude": 48.15,
            "longitude": 17.11,
            "location": "Bratislava",
            "country": "Slovakia",
            "id": 1
        },
        {
            "latitude": 48.21,
            "longitude": 16.37,
            "location": "Vienna",
            "country": "Austria",
            "id": 2
        },
        {
            "latitude": 50.09,
            "longitude": 14.42,
            "location": "Prague",
            "country": "Czechia",
            "id": 3
        },
        {
            "latitude": 51.92,
            "longitude": 4.48,
            "location": "Rotterdam",
            "country": "Netherlands (Kingdom of the)",
            "id": 4
        },
        {
            "latitude": 41.89,
            "longitude": 12.48,
            "location": "Vatican City",
            "country": "Holy See (the)",
            "id": 5
        },
        {
            "latitude": 47.5,
            "longitude": 19.04,
            "location": "Budapest",
            "country": "Hungary",
            "id": 6
        },
        {
            "latitude": 46.05,
            "longitude": 14.51,
            "location": "Ljubljana",
            "country": "Slovenia",
            "id": 7
        },
        {
            "latitude": 45.81,
            "longitude": 15.98,
            "location": "Zagreb - Centar",
            "country": "Croatia",
            "id": 8
        },
        {
            "latitude": 44.43,
            "longitude": 26.11,
            "location": "Bucharest",
            "country": "Romania",
            "id": 9
        },
        {
            "latitude": 41.01,
            "longitude": 28.95,
            "location": "Istanbul",
            "country": "T\u00fcrkiye",
            "id": 10
        },
        {
            "latitude": 47.14,
            "longitude": 9.52,
            "location": "Vaduz",
            "country": "Liechtenstein",
            "id": 11
        },
        {
            "latitude": 48.58,
            "longitude": 7.75,
            "location": "Strasbourg",
            "country": "France",
            "id": 12
        },
        {
            "latitude": 49.61,
            "longitude": 6.13,
            "location": "Luxembourg",
            "country": "Luxembourg",
            "id": 13
        },
        {
            "latitude": 47.37,
            "longitude": 8.55,
            "location": "Zurich",
            "country": "Switzerland",
            "id": 14
        },
        {
            "latitude": 50.85,
            "longitude": 4.35,
            "location": "Brussels",
            "country": "Belgium",
            "id": 15
        },
        {
            "latitude": 46.2,
            "longitude": 6.15,
            "location": "Geneve",
            "country": "Switzerland",
            "id": 16
        },
        {
            "latitude": 45.46,
            "longitude": 9.19,
            "location": "Milano",
            "country": "Italy",
            "id": 17
        },
        {
            "latitude": 37.98,
            "longitude": 23.72,
            "location": "Athens",
            "country": "Greece",
            "id": 18
        },
        {
            "latitude": 42.7,
            "longitude": 23.32,
            "location": "Sofia",
            "country": "Bulgaria",
            "id": 19
        },
        {
            "latitude": 50.12,
            "longitude": 8.68,
            "location": "Frankfurt am Main",
            "country": "Germany",
            "id": 20
        },
        {
            "latitude": 52.37,
            "longitude": 4.89,
            "location": "Amsterdam",
            "country": "Netherlands (Kingdom of the)",
            "id": 21
        },
        {
            "latitude": 51.51,
            "longitude": -0.13,
            "location": "London",
            "country": "United Kingdom of Great Britain and Northern Ireland (the)",
            "id": 22
        },
        {
            "latitude": 48.85,
            "longitude": 2.35,
            "location": "Paris",
            "country": "France",
            "id": 23
        },
        {
            "latitude": 59.33,
            "longitude": 18.06,
            "location": "Stockholm",
            "country": "Sweden",
            "id": 24
        },
        {
            "latitude": 52.23,
            "longitude": 21.01,
            "location": "Warsaw",
            "country": "Poland",
            "id": 25
        },
        {
            "latitude": 50.45,
            "longitude": 30.52,
            "location": "Kiev",
            "country": "Ukraine",
            "id": 26
        },
        {
            "latitude": 53.34,
            "longitude": -6.27,
            "location": "Rathmines",
            "country": "Ireland",
            "id": 27
        },
        {
            "latitude": 40.42,
            "longitude": -3.7,
            "location": "City Center",
            "country": "Spain",
            "id": 29
        },
        {
            "latitude": 41.39,
            "longitude": 2.16,
            "location": "Barcelona",
            "country": "Spain",
            "id": 30
        },
        {
            "latitude": 43.3,
            "longitude": 5.38,
            "location": "Marseille",
            "country": "France",
            "id": 31
        },
        {
            "latitude": 45.75,
            "longitude": 4.85,
            "location": "Lyon",
            "country": "France",
            "id": 32
        },
        {
            "latitude": 47.57,
            "longitude": 7.6,
            "location": "Birsfelden",
            "country": "Switzerland",
            "id": 33
        }
    ],
    "links": [
        {
            "length": 82.90568141920215,
            "source": 1,
            "target": 2.0
        },
        {
            "length": 436.8975089563237,
            "source": 1,
            "target": 3.0
        },
        {
            "length": 241.7867396523617,
            "source": 1,
            "target": 6.0
        },
        {
            "length": 938.3690097105002,
            "source": 2,
            "target": 17.0
        },
        {
            "length": 896.6393352298046,
            "source": 2,
            "target": 20.0
        },
        {
            "length": 775.8606332236109,
            "source": 3,
            "target": 25.0
        },
        {
            "length": 613.9214384057149,
            "source": 3,
            "target": 20.0
        },
        {
            "length": 85.99144004903886,
            "source": 4,
            "target": 21.0
        },
        {
            "length": 178.9800585255622,
            "source": 4,
            "target": 15.0
        },
        {
            "length": 715.4516592483906,
            "source": 5,
            "target": 17.0
        },
        {
            "length": 1025.843209642385,
            "source": 5,
            "target": 14.0
        },
        {
            "length": 965.8917706148927,
            "source": 6,
            "target": 9.0
        },
        {
            "length": 945.6352538534798,
            "source": 6,
            "target": 19.0
        },
        {
            "length": 449.58607573109,
            "source": 6,
            "target": 8.0
        },
        {
            "length": 175.1673780561866,
            "source": 7,
            "target": 8.0
        },
        {
            "length": 1120.089078640492,
            "source": 9,
            "target": 26.0
        },
        {
            "length": 668.1031392122177,
            "source": 9,
            "target": 10.0
        },
        {
            "length": 841.4865647688955,
            "source": 10,
            "target": 18.0
        },
        {
            "length": 116.3188714196001,
            "source": 11,
            "target": 14.0
        },
        {
            "length": 169.2875823684238,
            "source": 12,
            "target": 33.0
        },
        {
            "length": 276.0159872835782,
            "source": 12,
            "target": 20.0
        },
        {
            "length": 246.6032536389703,
            "source": 12,
            "target": 13.0
        },
        {
            "length": 280.7794512078589,
            "source": 13,
            "target": 15.0
        },
        {
            "length": 326.9602959297368,
            "source": 14,
            "target": 17.0
        },
        {
            "length": 458.9016589907375,
            "source": 14,
            "target": 20.0
        },
        {
            "length": 336.4474057053269,
            "source": 14,
            "target": 16.0
        },
        {
            "length": 475.3066139514598,
            "source": 15,
            "target": 20.0
        },
        {
            "length": 259.619106832056,
            "source": 15,
            "target": 21.0
        },
        {
            "length": 481.0970345108332,
            "source": 15,
            "target": 22.0
        },
        {
            "length": 396.8832465221968,
            "source": 15,
            "target": 23.0
        },
        {
            "length": 282.0120443677531,
            "source": 16,
            "target": 33.0
        },
        {
            "length": 615.1060613002187,
            "source": 16,
            "target": 23.0
        },
        {
            "length": 168.3455938030974,
            "source": 16,
            "target": 32.0
        },
        {
            "length": 579.6120453898972,
            "source": 17,
            "target": 31.0
        },
        {
            "length": 788.8978423686046,
            "source": 18,
            "target": 19.0
        },
        {
            "length": 545.2339470871901,
            "source": 20,
            "target": 21.0
        },
        {
            "length": 1500.0,
            "source": 20,
            "target": 24.0
        },
        {
            "length": 1334.654553161583,
            "source": 20,
            "target": 25.0
        },
        {
            "length": 535.6163051270169,
            "source": 21,
            "target": 22.0
        },
        {
            "length": 694.7866744906818,
            "source": 22,
            "target": 27.0
        },
        {
            "length": 1981.348079362193,
            "source": 22,
            "target": 28.0
        },
        {
            "length": 516.656454570689,
            "source": 22,
            "target": 23.0
        },
        {
            "length": 1500.0,
            "source": 23,
            "target": 29.0
        },
        {
            "length": 589.2508599924295,
            "source": 23,
            "target": 32.0
        },
        {
            "length": 1033.531903854255,
            "source": 25,
            "target": 26.0
        },
        {
            "length": 756.0643238408899,
            "source": 29,
            "target": 30.0
        },
        {
            "length": 508.909806592813,
            "source": 30,
            "target": 31.0
        },
        {
            "length": 413.4699996869407,
            "source": 31,
            "target": 32.0
        }
    ]
}