{
    "directed": false,
    "multigraph": false,
    "graph": {},
    "nodes": [
        {
            "latitude": 44.65,
            "longitude": -63.57,
            "location": "Halifax",
            "country": "Canada",
            "id": 1
        },
        {
            "latitude": 43.08,
            "longitude": -79.07,
            "location": "Niagara Falls",
            "country": "United States of America (the)",
            "id": 2
        },
        {
            "latitude": 46.12,
            "longitude": -64.8,
            "location": "Moncton",
            "country": "Canada",
            "id": 3
        },
        {
            "latitude": 47.37,
            "longitude": -68.33,
            "location": "Edmundston",
            "country": "Canada",
            "id": 4
        },
        {
            "latitude": 46.81,
            "longitude": -71.21,
            "location": "Quebec",
            "country": "Canada",
            "id": 5
        },
        {
            "latitude": 45.51,
            "longitude": -73.59,
            "location": "Montreal",
            "country": "Canada",
            "id": 6
        },
        {
            "latitude": 43.7,
            "longitude": -79.42,
            "location": "Toronto",
            "country": "Canada",
            "id": 7
        },
        {
            "latitude": 55.85,
            "longitude": -108.48,
            "location": "Meadow Lake",
            "country": "Canada",
            "id": 8
        },
        {
            "latitude": 46.28,
            "longitude": -63.65,
            "location": "Kensington",
            "country": "Canada",
            "id": 9
        },
        {
            "latitude": 49.87,
            "longitude": -121.44,
            "location": "Hope",
            "country": "Canada",
            "id": 10
        }
    ],
    "links": [
        {
            "length": 284.3799353856231,
            "source": 1,
            "target": 3
        },
        {
            "length": 1584.610892758787,
            "source": 2,
            "target": 9
        },
        {
            "length": 4105.62024092363,
            "source": 2,
            "target": 10
        },
        {
            "length": 454.0821377745199,
            "source": 3,
            "target": 4
        },
        {
            "length": 340.1067851508351,
            "source": 4,
            "target": 5
        },
        {
            "length": 350.1389724135474,
            "source": 5,
            "target": 6
        },
        {
            "length": 755.0357670265992,
            "source": 6,
            "target": 7
        },
        {
            "length": 1160.215825681341,
            "source": 6,
            "target": 9
        },
        {
            "length": 3072.183247999704,
            "source": 7,
            "target": 8
        },
        {
            "length": 4053.089425176728,
            "source": 8,
            "target": 9
        }
    ]
}