{
    "directed": false,
    "multigraph": false,
    "graph": {},
    "nodes": [
        {
            "latitude": 45.4384958,
            "longitude": 10.9924122,
            "location": "Verona",
            "country": "Italy",
            "id": 1
        },
        {
            "latitude": 50.1106444,
            "longitude": 8.6820917,
            "location": "Frankfurt",
            "country": "Germany",
            "id": 2
        },
        {
            "latitude": 49.7913804,
            "longitude": 10.0246112,
            "location": "Wurzburg",
            "country": "Germany",
            "id": 3
        },
        {
            "latitude": 49.453872,
            "longitude": 11.077298,
            "location": "Nuremburg",
            "country": "Germany",
            "id": 4
        },
        {
            "latitude": 48.7784485,
            "longitude": 9.1800132,
            "location": "Stuttgart",
            "country": "Germany",
            "id": 5
        },
        {
            "latitude": 48.1371079,
            "longitude": 11.5753822,
            "location": "Munich",
            "country": "Germany",
            "id": 6
        },
        {
            "latitude": 50.0596288,
            "longitude": 14.446459273258,
            "location": "Prague",
            "country": "Czechia",
            "id": 7
        },
        {
            "latitude": 49.1922443,
            "longitude": 16.6113382,
            "location": "Brno",
            "country": "Czechia",
            "id": 8
        },
        {
            "latitude": 48.15926025,
            "longitude": 17.1396586914216,
            "location": "Bratislava",
            "country": "Slovakia",
            "id": 9
        },
        {
            "latitude": 48.2083537,
            "longitude": 16.3725042,
            "location": "Vienna",
            "country": "Austria",
            "id": 10
        },
        {
            "latitude": 48.3059078,
            "longitude": 14.286198,
            "location": "Linz",
            "country": "Austria",
            "id": 11
        },
        {
            "latitude": 47.7981346,
            "longitude": 13.0464806,
            "location": "Salzburg",
            "country": "Austria",
            "id": 12
        },
        {
            "latitude": 47.8701474,
            "longitude": 12.6423403,
            "location": "Transtein",
            "country": "Germany",
            "id": 13
        },
        {
            "latitude": 47.4978789,
            "longitude": 19.0402383,
            "location": "Budapest",
            "country": "Hungary",
            "id": 14
        },
        {
            "latitude": 47.2654296,
            "longitude": 11.3927685,
            "location": "Innsbruck",
            "country": "Austria",
            "id": 15
        },
        {
            "latitude": 46.6167284,
            "longitude": 13.8500268,
            "location": "Villach",
            "country": "Austria",
            "id": 16
        },
        {
            "latitude": 46.623943,
            "longitude": 14.3075976,
            "location": "klagenfurt",
            "country": "Austria",
            "id": 17
        },
        {
            "latitude": 47.0708678,
            "longitude": 15.4382786,
            "location": "Graz",
            "country": "Austria",
            "id": 18
        },
        {
            "latitude": 46.0500268,
            "longitude": 14.5069289,
            "location": "Ljubljana",
            "country": "Slovenia",
            "id": 19
        }
    ],
    "links": [
        {
            "length": 308.19,
            "source": 1,
            "target": 15
        },
        {
            "length": 384.84,
            "source": 1,
            "target": 16
        },
        {
            "length": 153.6,
            "source": 2,
            "target": 3
        },
        {
            "length": 228.66,
            "source": 2,
            "target": 5
        },
        {
            "length": 126.915,
            "source": 3,
            "target": 4
        },
        {
            "length": 226.335,
            "source": 4,
            "target": 6
        },
        {
            "length": 285.72,
            "source": 5,
            "target": 6
        },
        {
            "length": 448.425,
            "source": 6,
            "target": 7
        },
        {
            "length": 127.125,
            "source": 6,
            "target": 13
        },
        {
            "length": 275.01,
            "source": 7,
            "target": 8
        },
        {
            "length": 181.86,
            "source": 8,
            "target": 9
        },
        {
            "length": 239.7,
            "source": 9,
            "target": 14
        },
        {
            "length": 85.71000000000001,
            "source": 9,
            "target": 10
        },
        {
            "length": 321.21,
            "source": 10,
            "target": 14
        },
        {
            "length": 216.84,
            "source": 10,
            "target": 18
        },
        {
            "length": 232.245,
            "source": 10,
            "target": 11
        },
        {
            "length": 162.105,
            "source": 11,
            "target": 12
        },
        {
            "length": 217.065,
            "source": 12,
            "target": 16
        },
        {
            "length": 46.815,
            "source": 12,
            "target": 13
        },
        {
            "length": 173.055,
            "source": 13,
            "target": 15
        },
        {
            "length": 52.425,
            "source": 16,
            "target": 17
        },
        {
            "length": 98.445,
            "source": 17,
            "target": 19
        },
        {
            "length": 148.98,
            "source": 17,
            "target": 18
        },
        {
            "length": 201.0,
            "source": 18,
            "target": 19
        }
    ]
}