{
    "directed": false,
    "multigraph": false,
    "graph": {},
    "nodes": [
        {
            "latitude": 19.01,
            "longitude": 72.85,
            "location": "Mumbai",
            "country": "India",
            "id": 1
        },
        {
            "latitude": 18.52,
            "longitude": 73.86,
            "location": "Pune",
            "country": "India",
            "id": 2
        },
        {
            "latitude": 22.72,
            "longitude": 75.83,
            "location": "Indore",
            "country": "India",
            "id": 3
        },
        {
            "latitude": 8.48,
            "longitude": 76.92,
            "location": "Thiruvananthapuram",
            "country": "India",
            "id": 4
        },
        {
            "latitude": 23.03,
            "longitude": 72.62,
            "location": "Ahmedabad",
            "country": "India",
            "id": 5
        },
        {
            "latitude": 26.92,
            "longitude": 75.82,
            "location": "Jaipur",
            "country": "India",
            "id": 6
        },
        {
            "latitude": 13.09,
            "longitude": 80.28,
            "location": "George Town",
            "country": "India",
            "id": 7
        },
        {
            "latitude": 12.98,
            "longitude": 77.6,
            "location": "Bangalore",
            "country": "India",
            "id": 8
        },
        {
            "latitude": 28.64,
            "longitude": 77.22,
            "location": "New Delhi",
            "country": "India",
            "id": 9
        },
        {
            "latitude": 26.19,
            "longitude": 91.75,
            "location": "Guwahati",
            "country": "India",
            "id": 10
        },
        {
            "latitude": 29.45,
            "longitude": 75.68,
            "location": "Gorakhpur",
            "country": "India",
            "id": 11
        },
        {
            "latitude": 26.47,
            "longitude": 80.35,
            "location": "Kanpur",
            "country": "India",
            "id": 12
        },
        {
            "latitude": 25.45,
            "longitude": 81.85,
            "location": "Allahabad",
            "country": "India",
            "id": 13
        },
        {
            "latitude": 22.57,
            "longitude": 88.37,
            "location": "Kolkata",
            "country": "India",
            "id": 14
        },
        {
            "latitude": 20.23,
            "longitude": 85.83,
            "location": "Bhubaneshwar",
            "country": "India",
            "id": 15
        },
        {
            "latitude": 17.38,
            "longitude": 78.47,
            "location": "Hyderabad",
            "country": "India",
            "id": 16
        }
    ],
    "links": [
        {
            "length": 179.224401832357,
            "source": 1,
            "target": 2
        },
        {
            "length": 773.6337951082263,
            "source": 1,
            "target": 3
        },
        {
            "length": 1500.0,
            "source": 1,
            "target": 9
        },
        {
            "length": 1101.786486959481,
            "source": 2,
            "target": 8
        },
        {
            "length": 758.7883770649184,
            "source": 4,
            "target": 8
        },
        {
            "length": 1162.635332833133,
            "source": 5,
            "target": 9
        },
        {
            "length": 353.5213518954667,
            "source": 6,
            "target": 9
        },
        {
            "length": 435.869644797688,
            "source": 7,
            "target": 8
        },
        {
            "length": 772.5246083159809,
            "source": 7,
            "target": 16
        },
        {
            "length": 2177.195551264161,
            "source": 8,
            "target": 9
        },
        {
            "length": 747.1215199807971,
            "source": 8,
            "target": 16
        },
        {
            "length": 587.5069712378195,
            "source": 9,
            "target": 12
        },
        {
            "length": 1631.198779249713,
            "source": 9,
            "target": 14
        },
        {
            "length": 792.5113756660074,
            "source": 10,
            "target": 14
        },
        {
            "length": 848.6111993950832,
            "source": 11,
            "target": 12
        },
        {
            "length": 282.0298130830362,
            "source": 12,
            "target": 13
        },
        {
            "length": 554.8701312485068,
            "source": 14,
            "target": 15
        },
        {
            "length": 1500.0,
            "source": 14,
            "target": 16
        }
    ]
}