{
    "directed": false,
    "multigraph": false,
    "graph": {},
    "nodes": [
        {
            "latitude": 48.97,
            "longitude": 14.47,
            "location": "Ceske Budejovice",
            "country": "Czechia",
            "id": 1
        },
        {
            "latitude": 49.4,
            "longitude": 13.3,
            "location": "Klatovy",
            "country": "Czechia",
            "id": 2
        },
        {
            "latitude": 49.31,
            "longitude": 14.15,
            "location": "Pisek",
            "country": "Czechia",
            "id": 3
        },
        {
            "latitude": 50.46,
            "longitude": 13.42,
            "location": "Chomutov",
            "country": "Czechia",
            "id": 4
        },
        {
            "latitude": 49.75,
            "longitude": 13.38,
            "location": "Pilsen",
            "country": "Czechia",
            "id": 5
        },
        {
            "latitude": 49.14,
            "longitude": 15.0,
            "location": "Jindrichuv Hradec",
            "country": "Czechia",
            "id": 6
        },
        {
            "latitude": 49.61,
            "longitude": 15.58,
            "location": "Havlickuv Brod",
            "country": "Czechia",
            "id": 7
        },
        {
            "latitude": 49.41,
            "longitude": 14.66,
            "location": "Tabor",
            "country": "Czechia",
            "id": 8
        },
        {
            "latitude": 49.2,
            "longitude": 16.61,
            "location": "Brno",
            "country": "Czechia",
            "id": 9
        },
        {
            "latitude": 50.66,
            "longitude": 14.03,
            "location": "Usti nad Labem",
            "country": "Czechia",
            "id": 10
        },
        {
            "latitude": 50.03,
            "longitude": 15.2,
            "location": "Kolin",
            "country": "Czechia",
            "id": 11
        },
        {
            "latitude": 49.83,
            "longitude": 18.28,
            "location": "Ostrava",
            "country": "Czechia",
            "id": 12
        },
        {
            "latitude": 49.22,
            "longitude": 17.67,
            "location": "Zlin",
            "country": "Czechia",
            "id": 13
        },
        {
            "latitude": 49.03,
            "longitude": 15.5,
            "location": "Jemnice",
            "country": "Czechia",
            "id": 14
        },
        {
            "latitude": 48.85,
            "longitude": 17.13,
            "location": "Hodonin",
            "country": "Czechia",
            "id": 15
        },
        {
            "latitude": 49.47,
            "longitude": 17.11,
            "location": "Prostejov",
            "country": "Czechia",
            "id": 16
        },
        {
            "latitude": 49.96,
            "longitude": 14.07,
            "location": "Beroun",
            "country": "Czechia",
            "id": 17
        },
        {
            "latitude": 50.23,
            "longitude": 12.87,
            "location": "Karlovy Vary",
            "country": "Czechia",
            "id": 18
        },
        {
            "latitude": 49.94,
            "longitude": 17.9,
            "location": "Opava",
            "country": "Czechia",
            "id": 19
        },
        {
            "latitude": 49.6,
            "longitude": 17.25,
            "location": "Olomouc",
            "country": "Czechia",
            "id": 20
        },
        {
            "latitude": 49.9,
            "longitude": 16.44,
            "location": "Ceska Trebova",
            "country": "Czechia",
            "id": 21
        },
        {
            "latitude": 50.77,
            "longitude": 15.06,
            "location": "Liberec",
            "country": "Czechia",
            "id": 22
        },
        {
            "latitude": 50.6,
            "longitude": 15.34,
            "location": "Semily",
            "country": "Czechia",
            "id": 23
        },
        {
            "latitude": 50.15,
            "longitude": 14.1,
            "location": "Kladno",
            "country": "Czechia",
            "id": 24
        },
        {
            "latitude": 50.09,
            "longitude": 14.42,
            "location": "Prague",
            "country": "Czechia",
            "id": 25
        },
        {
            "latitude": 50.41,
            "longitude": 14.9,
            "location": "Mlada Boleslav",
            "country": "Czechia",
            "id": 26
        }
    ],
    "links": [
        {
            "length": 66.59716207899825,
            "source": 1,
            "target": 3
        },
        {
            "length": 64.4982574068788,
            "source": 1,
            "target": 6
        },
        {
            "length": 186.8858670613935,
            "source": 1,
            "target": 25
        },
        {
            "length": 76.25514690688053,
            "source": 1,
            "target": 8
        },
        {
            "length": 59.01507299542541,
            "source": 2,
            "target": 5
        },
        {
            "length": 72.73484848207556,
            "source": 4,
            "target": 10
        },
        {
            "length": 69.99170242282302,
            "source": 4,
            "target": 18
        },
        {
            "length": 82.0505994522759,
            "source": 5,
            "target": 17
        },
        {
            "length": 96.95617952126375,
            "source": 5,
            "target": 18
        },
        {
            "length": 100.5618534474931,
            "source": 6,
            "target": 7
        },
        {
            "length": 131.0451677159967,
            "source": 7,
            "target": 9
        },
        {
            "length": 81.50069339341765,
            "source": 9,
            "target": 15
        },
        {
            "length": 110.3130666224108,
            "source": 10,
            "target": 22
        },
        {
            "length": 84.11803537378353,
            "source": 11,
            "target": 25
        },
        {
            "length": 44.76998048270598,
            "source": 12,
            "target": 19
        },
        {
            "length": 117.5181952711605,
            "source": 12,
            "target": 20
        },
        {
            "length": 121.2979327333021,
            "source": 12,
            "target": 13
        },
        {
            "length": 238.9592328689168,
            "source": 13,
            "target": 14
        },
        {
            "length": 181.0809673157038,
            "source": 14,
            "target": 15
        },
        {
            "length": 26.4538710748345,
            "source": 16,
            "target": 20
        },
        {
            "length": 43.32148031128548,
            "source": 17,
            "target": 25
        },
        {
            "length": 100.6160808488183,
            "source": 20,
            "target": 21
        },
        {
            "length": 40.98201015679786,
            "source": 22,
            "target": 23
        },
        {
            "length": 35.65535993070064,
            "source": 24,
            "target": 25
        },
        {
            "length": 73.95598548369489,
            "source": 25,
            "target": 26
        }
    ]
}