{
    "directed": false,
    "multigraph": false,
    "graph": {},
    "nodes": [
        {
            "latitude": 40.419998,
            "longitude": -3.7100002,
            "location": "Madrid, Community of Madrid",
            "country": "Spain",
            "id": 1
        },
        {
            "latitude": 32.45,
            "longitude": -99.739998,
            "location": "Abilene, Texas",
            "country": "United States",
            "id": 2
        },
        {
            "latitude": 42.6699982,
            "longitude": -73.8000029,
            "location": "City of Albany, New York",
            "country": "United States",
            "id": 3
        },
        {
            "latitude": 35.119977,
            "longitude": -106.61997,
            "location": "Albuquerque, New Mexico",
            "country": "United States",
            "id": 4
        },
        {
            "latitude": 33.7599982,
            "longitude": -84.4199987,
            "location": "Atlanta, Georgia",
            "country": "United States",
            "id": 5
        },
        {
            "latitude": 30.3099988,
            "longitude": -97.7500018,
            "location": "Austin, Texas",
            "country": "United States",
            "id": 6
        },
        {
            "latitude": 39.2999992,
            "longitude": -76.6100008,
            "location": "Baltimore, Maryland",
            "country": "United States",
            "id": 7
        },
        {
            "latitude": 30.4499996,
            "longitude": -91.1299968,
            "location": "Baton Rouge, Louisiana",
            "country": "United States",
            "id": 8
        },
        {
            "latitude": 45.79000104,
            "longitude": -108.5400006,
            "location": "Billings, Montana",
            "country": "United States",
            "id": 9
        },
        {
            "latitude": 33.5299985,
            "longitude": -86.8000029,
            "location": "Birmingham, Alabama",
            "country": "United States",
            "id": 10
        },
        {
            "latitude": 46.81000154,
            "longitude": -100.7699965,
            "location": "Bismarck, North Dakota",
            "country": "United States",
            "id": 11
        },
        {
            "latitude": 42.3400005,
            "longitude": -71.0199959,
            "location": "Boston, Massachusetts",
            "country": "United States",
            "id": 12
        },
        {
            "latitude": 42.8899993,
            "longitude": -78.860001,
            "location": "Buffalo, New York",
            "country": "United States",
            "id": 13
        },
        {
            "latitude": 32.7900008,
            "longitude": -79.9899982,
            "location": "Charleston, South Carolina",
            "country": "United States",
            "id": 14
        },
        {
            "latitude": 35.2,
            "longitude": -80.83,
            "location": "Charlotte, North Carolina",
            "country": "United States",
            "id": 15
        },
        {
            "latitude": 41.839997,
            "longitude": -87.680001,
            "location": "Chicago, Illinois",
            "country": "United States",
            "id": 16
        },
        {
            "latitude": 39.1399991,
            "longitude": -84.5100027,
            "location": "Cincinnati, Ohio",
            "country": "United States",
            "id": 17
        },
        {
            "latitude": 41.4799992,
            "longitude": -81.6800014,
            "location": "Cleveland, Ohio",
            "country": "United States",
            "id": 18
        },
        {
            "latitude": 39.990002,
            "longitude": -82.989997,
            "location": "Columbus, Ohio",
            "country": "United States",
            "id": 19
        },
        {
            "latitude": 32.79,
            "longitude": -96.77,
            "location": "Dallas, Texas",
            "country": "United States",
            "id": 20
        },
        {
            "latitude": 39.77000271,
            "longitude": -104.8700036,
            "location": "Denver, Colorado",
            "country": "United States",
            "id": 21
        },
        {
            "latitude": 42.3800019,
            "longitude": -83.0999998,
            "location": "Detroit, Michigan",
            "country": "United States",
            "id": 22
        },
        {
            "latitude": 31.84981,
            "longitude": -106.4396,
            "location": "El Paso, Texas",
            "country": "United States",
            "id": 23
        },
        {
            "latitude": 36.7800007,
            "longitude": -119.790002,
            "location": "Fresno, California",
            "country": "United States",
            "id": 24
        },
        {
            "latitude": 36.0800024,
            "longitude": -79.8300018,
            "location": "Greensboro, North Carolina",
            "country": "United States",
            "id": 25
        },
        {
            "latitude": 41.7700004,
            "longitude": -72.6800003,
            "location": "Hartford, Connecticut",
            "country": "United States",
            "id": 26
        },
        {
            "latitude": 29.77,
            "longitude": -95.39,
            "location": "Houston, Texas",
            "country": "United States",
            "id": 27
        },
        {
            "latitude": 30.330003,
            "longitude": -81.660002,
            "location": "Jacksonville, Florida",
            "country": "United States",
            "id": 28
        },
        {
            "latitude": 39.1199992,
            "longitude": -94.7300038,
            "location": "Kansas City, Kansas",
            "country": "United States",
            "id": 29
        },
        {
            "latitude": 36.20999,
            "longitude": -115.2199,
            "location": "Las Vegas, Nevada",
            "country": "United States",
            "id": 30
        },
        {
            "latitude": 34.72,
            "longitude": -92.35,
            "location": "Little Rock, Arkansas",
            "country": "United States",
            "id": 31
        },
        {
            "latitude": 40.5899999,
            "longitude": -73.6699993,
            "location": "City of Long Beach, New York",
            "country": "United States",
            "id": 32
        },
        {
            "latitude": 34.110001,
            "longitude": -118.410002,
            "location": "Los Angeles, California",
            "country": "United States",
            "id": 33
        },
        {
            "latitude": 38.2200009,
            "longitude": -85.7399979,
            "location": "Louisville, Kentucky",
            "country": "United States",
            "id": 34
        },
        {
            "latitude": 35.110001,
            "longitude": -90.010004,
            "location": "Memphis, Tennessee",
            "country": "United States",
            "id": 35
        },
        {
            "latitude": 25.7800006,
            "longitude": -80.2099997,
            "location": "Miami, Florida",
            "country": "United States",
            "id": 36
        },
        {
            "latitude": 43.0600013,
            "longitude": -87.9700005,
            "location": "Milwaukee, Wisconsin",
            "country": "United States",
            "id": 37
        },
        {
            "latitude": 44.9599988,
            "longitude": -93.2699973,
            "location": "Minneapolis, Minnesota",
            "country": "United States",
            "id": 38
        },
        {
            "latitude": 36.1699984,
            "longitude": -86.7799989,
            "location": "Nashville-Davidson, Tennessee",
            "country": "United States",
            "id": 39
        },
        {
            "latitude": 30.07,
            "longitude": -89.93,
            "location": "New Orleans, Louisiana",
            "country": "United States",
            "id": 40
        },
        {
            "latitude": 40.6699983,
            "longitude": -73.9400035,
            "location": "New York, New York",
            "country": "United States",
            "id": 41
        },
        {
            "latitude": 40.7200012,
            "longitude": -74.1699986,
            "location": "Newark, New Jersey",
            "country": "United States",
            "id": 42
        },
        {
            "latitude": 36.9199982,
            "longitude": -76.2399978,
            "location": "Norfolk, Virginia",
            "country": "United States",
            "id": 43
        },
        {
            "latitude": 37.77000071,
            "longitude": -122.2200016,
            "location": "Oakland, California",
            "country": "United States",
            "id": 44
        },
        {
            "latitude": 35.4700015,
            "longitude": -97.5100028,
            "location": "Oklahoma City, Oklahoma",
            "country": "United States",
            "id": 45
        },
        {
            "latitude": 41.2599984,
            "longitude": -96.0100022,
            "location": "Omaha, Nebraska",
            "country": "United States",
            "id": 46
        },
        {
            "latitude": 28.4999994,
            "longitude": -81.370003,
            "location": "Orange County, Florida",
            "country": "United States",
            "id": 47
        },
        {
            "latitude": 40.0099985,
            "longitude": -75.1299964,
            "location": "Philadelphia, Pennsylvania",
            "country": "United States",
            "id": 48
        },
        {
            "latitude": 33.54000058,
            "longitude": -112.0699996,
            "location": "Phoenix, Arizona",
            "country": "United States",
            "id": 49
        },
        {
            "latitude": 40.3,
            "longitude": -80.13,
            "location": "Cecil Township, Pennsylvania",
            "country": "United States",
            "id": 50
        },
        {
            "latitude": 45.54000072,
            "longitude": -122.6600035,
            "location": "Portland, Oregon",
            "country": "United States",
            "id": 51
        },
        {
            "latitude": 41.82,
            "longitude": -71.42,
            "location": "Providence, Rhode Island",
            "country": "United States",
            "id": 52
        },
        {
            "latitude": 35.8199995,
            "longitude": -78.6600034,
            "location": "Raleigh, North Carolina",
            "country": "United States",
            "id": 53
        },
        {
            "latitude": 37.5299986,
            "longitude": -77.4700015,
            "location": "Richmond, Virginia",
            "country": "United States",
            "id": 54
        },
        {
            "latitude": 43.1699985,
            "longitude": -77.620003,
            "location": "City of Rochester, New York",
            "country": "United States",
            "id": 55
        },
        {
            "latitude": 38.56999946,
            "longitude": -121.4700016,
            "location": "Sacramento, California",
            "country": "United States",
            "id": 56
        },
        {
            "latitude": 40.77999863,
            "longitude": -111.9300007,
            "location": "Salt Lake City, Utah",
            "country": "United States",
            "id": 57
        },
        {
            "latitude": 29.459997,
            "longitude": -98.510002,
            "location": "San Antonio, Texas",
            "country": "United States",
            "id": 58
        },
        {
            "latitude": 32.8100017,
            "longitude": -117.139999,
            "location": "San Diego, California",
            "country": "United States",
            "id": 59
        },
        {
            "latitude": 37.65999942,
            "longitude": -122.4199987,
            "location": "South San Francisco, California",
            "country": "United States",
            "id": 60
        },
        {
            "latitude": 37.29999947,
            "longitude": -121.8499985,
            "location": "San Jose, California",
            "country": "United States",
            "id": 61
        },
        {
            "latitude": 34.43000021,
            "longitude": -119.7200014,
            "location": "Santa Barbara, California",
            "country": "United States",
            "id": 62
        },
        {
            "latitude": 41.4,
            "longitude": -75.67,
            "location": "Scranton, Pennsylvania",
            "country": "United States",
            "id": 63
        },
        {
            "latitude": 47.61999916,
            "longitude": -122.3499985,
            "location": "Seattle, Washington",
            "country": "United States",
            "id": 64
        },
        {
            "latitude": 47.66999805,
            "longitude": -117.4100038,
            "location": "Spokane, Washington",
            "country": "United States",
            "id": 65
        },
        {
            "latitude": 39.5,
            "longitude": -89.4,
            "location": "Christian County, Illinois",
            "country": "United States",
            "id": 66
        },
        {
            "latitude": 38.64,
            "longitude": -90.24,
            "location": "St. Louis, Missouri",
            "country": "United States",
            "id": 67
        },
        {
            "latitude": 43.040001,
            "longitude": -76.1399993,
            "location": "City of Syracuse, New York",
            "country": "United States",
            "id": 68
        },
        {
            "latitude": 30.46,
            "longitude": -84.28,
            "location": "Tallahassee, Florida",
            "country": "United States",
            "id": 69
        },
        {
            "latitude": 27.9599988,
            "longitude": -82.4800035,
            "location": "Tampa, Florida",
            "country": "United States",
            "id": 70
        },
        {
            "latitude": 41.659997,
            "longitude": -83.58,
            "location": "Toledo, Ohio",
            "country": "United States",
            "id": 71
        },
        {
            "latitude": 32.2,
            "longitude": -110.89,
            "location": "Tucson, Arizona",
            "country": "United States",
            "id": 72
        },
        {
            "latitude": 36.13,
            "longitude": -95.92,
            "location": "Tulsa, Oklahoma",
            "country": "United States",
            "id": 73
        },
        {
            "latitude": 38.9100003,
            "longitude": -77.0199965,
            "location": "Washington, District of Columbia",
            "country": "United States",
            "id": 74
        },
        {
            "latitude": 26.7499997,
            "longitude": -80.1299975,
            "location": "Century Village, Florida",
            "country": "United States",
            "id": 75
        },
        {
            "latitude": 39.7400018,
            "longitude": -75.5299989,
            "location": "Wilmington, Delaware",
            "country": "United States",
            "id": 76
        },
        {
            "latitude": 52.3699996,
            "longitude": 4.88999915,
            "location": "Amsterdam, North Holland",
            "country": "Netherlands",
            "id": 77
        },
        {
            "latitude": 52.520002,
            "longitude": 13.379995,
            "location": "Berlin",
            "country": "Germany",
            "id": 78
        },
        {
            "latitude": 50.830002,
            "longitude": 4.330002,
            "location": "Saint-Gilles - Sint-Gillis",
            "country": "Belgium",
            "id": 79
        },
        {
            "latitude": 44.44,
            "longitude": 26.1,
            "location": "Bucharest",
            "country": "Romania",
            "id": 80
        },
        {
            "latitude": 50.1199992,
            "longitude": 8.68000104,
            "location": "Frankfurt, Hesse",
            "country": "Germany",
            "id": 81
        },
        {
            "latitude": 41.1,
            "longitude": 29.0,
            "location": "K\u221a\u00a2\u0192\u00fc\u0192\u00b1thane",
            "country": "Turkey",
            "id": 82
        },
        {
            "latitude": 51.5200005,
            "longitude": -0.100000296,
            "location": "London, England",
            "country": "United Kingdom",
            "id": 83
        },
        {
            "latitude": 48.86,
            "longitude": 2.3399995,
            "location": "Paris, Ile-de-France",
            "country": "France",
            "id": 84
        },
        {
            "latitude": 41.8899996,
            "longitude": 12.5000004,
            "location": "Rome, Lazio",
            "country": "Italy",
            "id": 85
        },
        {
            "latitude": 48.2200024,
            "longitude": 16.3700005,
            "location": "Vienna",
            "country": "Austria",
            "id": 86
        },
        {
            "latitude": 52.2599987,
            "longitude": 21.0200005,
            "location": "Warsaw, Masovian Voivodeship",
            "country": "Poland",
            "id": 87
        },
        {
            "latitude": 47.3800015,
            "longitude": 8.5399996,
            "location": "Zurich, Zurich",
            "country": "Switzerland",
            "id": 88
        },
        {
            "latitude": 13.73,
            "longitude": 100.5,
            "location": "Bangkok",
            "country": "Thailand",
            "id": 89
        },
        {
            "latitude": 39.92999979,
            "longitude": 116.4000013,
            "location": "Dongcheng District, Beijing",
            "country": "China",
            "id": 90
        },
        {
            "latitude": 28.6700003,
            "longitude": 77.2099989,
            "location": "Kamla Nehru Ridge, Delhi",
            "country": "India",
            "id": 91
        },
        {
            "latitude": 22.267,
            "longitude": 114.14,
            "location": "Hong Kong Island, Hong Kong",
            "country": "China",
            "id": 92
        },
        {
            "latitude": 21.3199996,
            "longitude": -157.800003,
            "location": "East Honolulu, Hawaii",
            "country": "United States",
            "id": 93
        },
        {
            "latitude": 18.9599987,
            "longitude": 72.8199999,
            "location": "Mumbai, Maharashtra",
            "country": "India",
            "id": 94
        },
        {
            "latitude": 37.56000108,
            "longitude": 126.9899988,
            "location": "Seoul",
            "country": "South Korea",
            "id": 95
        },
        {
            "latitude": 31.23,
            "longitude": 121.47,
            "location": "Shanghai, Shanghai",
            "country": "China",
            "id": 96
        },
        {
            "latitude": 1.299999907,
            "longitude": 103.8499992,
            "location": "Singapore",
            "country": "Singapore",
            "id": 97
        },
        {
            "latitude": -33.86999896,
            "longitude": 151.2100066,
            "location": "Sydney, New South Wales",
            "country": "Australia",
            "id": 98
        },
        {
            "latitude": 25.0200005,
            "longitude": 121.449997,
            "location": "New Taipei",
            "country": "Taiwan",
            "id": 99
        },
        {
            "latitude": 35.6699986,
            "longitude": 139.770004,
            "location": "Chuo",
            "country": "Japan",
            "id": 100
        }
    ],
    "links": [
        {
            "length": 1500.0,
            "source": 1,
            "target": 84
        },
        {
            "length": 1559.2625,
            "source": 1,
            "target": 88
        },
        {
            "length": 421.05,
            "source": 2,
            "target": 20
        },
        {
            "length": 951.21,
            "source": 2,
            "target": 23
        },
        {
            "length": 346.23,
            "source": 3,
            "target": 12
        },
        {
            "length": 292.68,
            "source": 3,
            "target": 68
        },
        {
            "length": 1416.36,
            "source": 4,
            "target": 20
        },
        {
            "length": 809.415,
            "source": 4,
            "target": 21
        },
        {
            "length": 546.015,
            "source": 4,
            "target": 23
        },
        {
            "length": 1179.045,
            "source": 4,
            "target": 30
        },
        {
            "length": 332.685,
            "source": 5,
            "target": 10
        },
        {
            "length": 548.88,
            "source": 5,
            "target": 15
        },
        {
            "length": 692.415,
            "source": 5,
            "target": 28
        },
        {
            "length": 352.455,
            "source": 6,
            "target": 27
        },
        {
            "length": 179.385,
            "source": 6,
            "target": 58
        },
        {
            "length": 223.92,
            "source": 7,
            "target": 48
        },
        {
            "length": 480.87,
            "source": 7,
            "target": 50
        },
        {
            "length": 83.955,
            "source": 7,
            "target": 74
        },
        {
            "length": 624.99,
            "source": 8,
            "target": 27
        },
        {
            "length": 184.125,
            "source": 8,
            "target": 40
        },
        {
            "length": 910.98,
            "source": 9,
            "target": 11
        },
        {
            "length": 1099.71,
            "source": 9,
            "target": 21
        },
        {
            "length": 1060.74,
            "source": 9,
            "target": 65
        },
        {
            "length": 440.34,
            "source": 10,
            "target": 39
        },
        {
            "length": 727.86,
            "source": 10,
            "target": 40
        },
        {
            "length": 923.385,
            "source": 11,
            "target": 38
        },
        {
            "length": 99.87,
            "source": 12,
            "target": 52
        },
        {
            "length": 420.405,
            "source": 13,
            "target": 18
        },
        {
            "length": 158.235,
            "source": 13,
            "target": 55
        },
        {
            "length": 473.985,
            "source": 14,
            "target": 28
        },
        {
            "length": 537.5550000000001,
            "source": 14,
            "target": 53
        },
        {
            "length": 199.785,
            "source": 15,
            "target": 25
        },
        {
            "length": 573.75,
            "source": 16,
            "target": 22
        },
        {
            "length": 206.595,
            "source": 16,
            "target": 37
        },
        {
            "length": 446.82,
            "source": 16,
            "target": 66
        },
        {
            "length": 241.44,
            "source": 17,
            "target": 19
        },
        {
            "length": 221.79,
            "source": 17,
            "target": 34
        },
        {
            "length": 971.01,
            "source": 17,
            "target": 74
        },
        {
            "length": 298.605,
            "source": 18,
            "target": 19
        },
        {
            "length": 238.98,
            "source": 18,
            "target": 71
        },
        {
            "length": 368.28,
            "source": 19,
            "target": 50
        },
        {
            "length": 540.75,
            "source": 20,
            "target": 27
        },
        {
            "length": 692.235,
            "source": 20,
            "target": 31
        },
        {
            "length": 458.52,
            "source": 20,
            "target": 45
        },
        {
            "length": 1150.065,
            "source": 21,
            "target": 46
        },
        {
            "length": 913.8000000000001,
            "source": 21,
            "target": 57
        },
        {
            "length": 134.01,
            "source": 22,
            "target": 71
        },
        {
            "length": 1205.19,
            "source": 23,
            "target": 58
        },
        {
            "length": 631.995,
            "source": 23,
            "target": 72
        },
        {
            "length": 620.0550000000001,
            "source": 24,
            "target": 30
        },
        {
            "length": 483.18,
            "source": 24,
            "target": 33
        },
        {
            "length": 362.31,
            "source": 24,
            "target": 44
        },
        {
            "length": 862.74,
            "source": 25,
            "target": 34
        },
        {
            "length": 163.815,
            "source": 25,
            "target": 53
        },
        {
            "length": 397.245,
            "source": 25,
            "target": 54
        },
        {
            "length": 232.77,
            "source": 26,
            "target": 32
        },
        {
            "length": 156.9,
            "source": 26,
            "target": 52
        },
        {
            "length": 308.13,
            "source": 28,
            "target": 47
        },
        {
            "length": 392.415,
            "source": 29,
            "target": 46
        },
        {
            "length": 588.405,
            "source": 29,
            "target": 67
        },
        {
            "length": 522.885,
            "source": 29,
            "target": 73
        },
        {
            "length": 619.6800000000001,
            "source": 30,
            "target": 49
        },
        {
            "length": 874.74,
            "source": 30,
            "target": 57
        },
        {
            "length": 326.58,
            "source": 31,
            "target": 35
        },
        {
            "length": 36.69,
            "source": 32,
            "target": 41
        },
        {
            "length": 5124.9125,
            "source": 33,
            "target": 93
        },
        {
            "length": 279.72,
            "source": 33,
            "target": 59
        },
        {
            "length": 188.28,
            "source": 33,
            "target": 62
        },
        {
            "length": 368.79,
            "source": 34,
            "target": 39
        },
        {
            "length": 592.0649999999999,
            "source": 34,
            "target": 67
        },
        {
            "length": 472.155,
            "source": 35,
            "target": 39
        },
        {
            "length": 9194.375,
            "source": 36,
            "target": 84
        },
        {
            "length": 496.245,
            "source": 36,
            "target": 70
        },
        {
            "length": 162.225,
            "source": 36,
            "target": 75
        },
        {
            "length": 710.1899999999999,
            "source": 37,
            "target": 38
        },
        {
            "length": 701.4449999999999,
            "source": 38,
            "target": 46
        },
        {
            "length": 816.4499999999999,
            "source": 40,
            "target": 69
        },
        {
            "length": 7326.475,
            "source": 41,
            "target": 77
        },
        {
            "length": 30.255,
            "source": 41,
            "target": 42
        },
        {
            "length": 249.39,
            "source": 41,
            "target": 63
        },
        {
            "length": 255.105,
            "source": 41,
            "target": 76
        },
        {
            "length": 170.025,
            "source": 42,
            "target": 48
        },
        {
            "length": 373.2,
            "source": 43,
            "target": 53
        },
        {
            "length": 479.43,
            "source": 43,
            "target": 76
        },
        {
            "length": 165.765,
            "source": 44,
            "target": 56
        },
        {
            "length": 1419.21,
            "source": 44,
            "target": 57
        },
        {
            "length": 32.145,
            "source": 44,
            "target": 60
        },
        {
            "length": 12976.8875,
            "source": 44,
            "target": 99
        },
        {
            "length": 241.62,
            "source": 45,
            "target": 73
        },
        {
            "length": 344.64,
            "source": 47,
            "target": 75
        },
        {
            "length": 241.68,
            "source": 48,
            "target": 63
        },
        {
            "length": 718.125,
            "source": 49,
            "target": 59
        },
        {
            "length": 277.98,
            "source": 49,
            "target": 72
        },
        {
            "length": 591.765,
            "source": 50,
            "target": 63
        },
        {
            "length": 1171.815,
            "source": 51,
            "target": 56
        },
        {
            "length": 1500.0,
            "source": 51,
            "target": 57
        },
        {
            "length": 348.75,
            "source": 51,
            "target": 64
        },
        {
            "length": 9736.2375,
            "source": 51,
            "target": 100
        },
        {
            "length": 237.6,
            "source": 54,
            "target": 74
        },
        {
            "length": 181.53,
            "source": 55,
            "target": 68
        },
        {
            "length": 96.42,
            "source": 60,
            "target": 61
        },
        {
            "length": 558.5699999999999,
            "source": 61,
            "target": 62
        },
        {
            "length": 279.63,
            "source": 63,
            "target": 68
        },
        {
            "length": 555.09,
            "source": 64,
            "target": 65
        },
        {
            "length": 180.015,
            "source": 66,
            "target": 67
        },
        {
            "length": 492.465,
            "source": 69,
            "target": 70
        },
        {
            "length": 7372.125,
            "source": 74,
            "target": 83
        },
        {
            "length": 862.9950000000001,
            "source": 77,
            "target": 78
        },
        {
            "length": 263.325,
            "source": 77,
            "target": 79
        },
        {
            "length": 545.235,
            "source": 77,
            "target": 81
        },
        {
            "length": 778.53,
            "source": 78,
            "target": 87
        },
        {
            "length": 477.24,
            "source": 79,
            "target": 83
        },
        {
            "length": 660.5250000000001,
            "source": 80,
            "target": 82
        },
        {
            "length": 1419.81,
            "source": 80,
            "target": 87
        },
        {
            "length": 895.9649999999999,
            "source": 81,
            "target": 86
        },
        {
            "length": 5683.150000000001,
            "source": 82,
            "target": 91
        },
        {
            "length": 1718.6375,
            "source": 82,
            "target": 85
        },
        {
            "length": 514.455,
            "source": 83,
            "target": 84
        },
        {
            "length": 7722.424999999999,
            "source": 85,
            "target": 94
        },
        {
            "length": 1149.675,
            "source": 85,
            "target": 86
        },
        {
            "length": 1028.925,
            "source": 85,
            "target": 88
        },
        {
            "length": 836.355,
            "source": 86,
            "target": 87
        },
        {
            "length": 3650.8875,
            "source": 89,
            "target": 91
        },
        {
            "length": 2156.325,
            "source": 89,
            "target": 92
        },
        {
            "length": 1432.215,
            "source": 90,
            "target": 95
        },
        {
            "length": 1500.0,
            "source": 90,
            "target": 96
        },
        {
            "length": 1500.0,
            "source": 91,
            "target": 94
        },
        {
            "length": 1541.6125,
            "source": 92,
            "target": 96
        },
        {
            "length": 9215.55,
            "source": 92,
            "target": 98
        },
        {
            "length": 1207.35,
            "source": 92,
            "target": 99
        },
        {
            "length": 10214.1125,
            "source": 93,
            "target": 98
        },
        {
            "length": 10170.7875,
            "source": 93,
            "target": 99
        },
        {
            "length": 4886.7125,
            "source": 94,
            "target": 97
        },
        {
            "length": 1500.0,
            "source": 95,
            "target": 100
        },
        {
            "length": 7874.962500000001,
            "source": 97,
            "target": 98
        },
        {
            "length": 2642.2375,
            "source": 99,
            "target": 100
        }
    ]
}