{
    "directed": false,
    "multigraph": false,
    "graph": {},
    "nodes": [
        {
            "latitude": 26.21,
            "longitude": 127.68,
            "location": "Naha",
            "country": "Japan",
            "id": 12
        },
        {
            "latitude": 43.075,
            "longitude": 141.34,
            "location": "Sapporo",
            "country": "Japan",
            "id": 1
        },
        {
            "latitude": 38.27,
            "longitude": 140.85,
            "location": "Sendai",
            "country": "Japan",
            "id": 2
        },
        {
            "latitude": 35.68,
            "longitude": 139.77,
            "location": "Tokyo",
            "country": "Japan",
            "id": 3
        },
        {
            "latitude": 35.66,
            "longitude": 139.28,
            "location": "Hachioji",
            "country": "Japan",
            "id": 4
        },
        {
            "latitude": 36.58,
            "longitude": 136.65,
            "location": "Kanazawa",
            "country": "Japan",
            "id": 5
        },
        {
            "latitude": 36.66,
            "longitude": 138.19,
            "location": "Nagano",
            "country": "Japan",
            "id": 6
        },
        {
            "latitude": 35.149,
            "longitude": 136.91,
            "location": "Nagoya",
            "country": "Japan",
            "id": 7
        },
        {
            "latitude": 34.67,
            "longitude": 135.5,
            "location": "Osaka",
            "country": "Japan",
            "id": 8
        },
        {
            "latitude": 34.39,
            "longitude": 132.449,
            "location": "Hiroshima",
            "country": "Japan",
            "id": 9
        },
        {
            "latitude": 33.84,
            "longitude": 132.75,
            "location": "Matsuyama",
            "country": "Japan",
            "id": 10
        },
        {
            "latitude": 33.57,
            "longitude": 130.35,
            "location": "Hakata",
            "country": "Japan",
            "id": 11
        }
    ],
    "links": [
        {
            "length": 889.9499999999999,
            "source": 1,
            "target": 2.0
        },
        {
            "length": 1570.5,
            "source": 1,
            "target": 4.0
        },
        {
            "length": 527.7,
            "source": 2,
            "target": 3.0
        },
        {
            "length": 71.1,
            "source": 3,
            "target": 4.0
        },
        {
            "length": 549.0,
            "source": 3,
            "target": 7.0
        },
        {
            "length": 376.05,
            "source": 4,
            "target": 6.0
        },
        {
            "length": 378.3,
            "source": 5,
            "target": 6.0
        },
        {
            "length": 395.7,
            "source": 5,
            "target": 8.0
        },
        {
            "length": 376.2,
            "source": 6,
            "target": 7.0
        },
        {
            "length": 279.9,
            "source": 7,
            "target": 8.0
        },
        {
            "length": 736.05,
            "source": 7,
            "target": 10.0
        },
        {
            "length": 512.4000000000001,
            "source": 8,
            "target": 9.0
        },
        {
            "length": 99.30000000000001,
            "source": 9,
            "target": 10.0
        },
        {
            "length": 421.05,
            "source": 9,
            "target": 11.0
        },
        {
            "length": 1500.0,
            "source": 10,
            "target": 12.0
        },
        {
            "length": 547.5,
            "source": 10,
            "target": 11.0
        },
        {
            "length": 1367.85,
            "source": 11,
            "target": 12.0
        }
    ]
}