{
    "directed": false,
    "multigraph": false,
    "graph": {},
    "nodes": [
        {
            "latitude": 42.59,
            "longitude": -87.82,
            "location": "Kenosha",
            "country": "United States of America (the)",
            "id": 1
        },
        {
            "latitude": 43.04,
            "longitude": -87.91,
            "location": "Milwaukee",
            "country": "United States of America (the)",
            "id": 2
        },
        {
            "latitude": 42.27,
            "longitude": -89.09,
            "location": "Rockford",
            "country": "United States of America (the)",
            "id": 3
        },
        {
            "latitude": 42.68,
            "longitude": -89.02,
            "location": "Janesville",
            "country": "United States of America (the)",
            "id": 4
        },
        {
            "latitude": 43.01,
            "longitude": -88.23,
            "location": "Waukesha",
            "country": "United States of America (the)",
            "id": 5
        },
        {
            "latitude": 43.07,
            "longitude": -89.4,
            "location": "Madison",
            "country": "United States of America (the)",
            "id": 6
        },
        {
            "latitude": 43.92,
            "longitude": -90.27,
            "location": "New Lisbon",
            "country": "United States of America (the)",
            "id": 7
        },
        {
            "latitude": 44.98,
            "longitude": -93.26,
            "location": "Minneapolis",
            "country": "United States of America (the)",
            "id": 8
        },
        {
            "latitude": 44.81,
            "longitude": -91.5,
            "location": "Eau Claire",
            "country": "United States of America (the)",
            "id": 9
        },
        {
            "latitude": 44.96,
            "longitude": -89.63,
            "location": "Wausau",
            "country": "United States of America (the)",
            "id": 10
        },
        {
            "latitude": 44.52,
            "longitude": -88.02,
            "location": "Green Bay",
            "country": "United States of America (the)",
            "id": 11
        },
        {
            "latitude": 44.26,
            "longitude": -88.42,
            "location": "Appleton",
            "country": "United States of America (the)",
            "id": 12
        },
        {
            "latitude": 44.02,
            "longitude": -88.54,
            "location": "Oshkosh",
            "country": "United States of America (the)",
            "id": 13
        },
        {
            "latitude": 43.77,
            "longitude": -88.44,
            "location": "Fond du Lac",
            "country": "United States of America (the)",
            "id": 14
        },
        {
            "latitude": 43.46,
            "longitude": -88.84,
            "location": "Beaver Dam",
            "country": "United States of America (the)",
            "id": 15
        }
    ],
    "links": [
        {
            "length": 75.860016937924,
            "source": 1,
            "target": 2
        },
        {
            "length": 165.2065935025056,
            "source": 1,
            "target": 3
        },
        {
            "length": 39.33857400442843,
            "source": 2,
            "target": 5
        },
        {
            "length": 68.9249489242323,
            "source": 3,
            "target": 4
        },
        {
            "length": 79.92983480781709,
            "source": 4,
            "target": 6
        },
        {
            "length": 142.9780858880039,
            "source": 5,
            "target": 6
        },
        {
            "length": 176.5788615413109,
            "source": 6,
            "target": 7
        },
        {
            "length": 94.11399976081071,
            "source": 6,
            "target": 15
        },
        {
            "length": 208.6732898997296,
            "source": 7,
            "target": 9
        },
        {
            "length": 209.8743549933172,
            "source": 8,
            "target": 9
        },
        {
            "length": 428.3236075781989,
            "source": 8,
            "target": 10
        },
        {
            "length": 204.3696485906607,
            "source": 10,
            "target": 11
        },
        {
            "length": 64.44807162855902,
            "source": 11,
            "target": 12
        },
        {
            "length": 42.52913763533532,
            "source": 12,
            "target": 13
        },
        {
            "length": 43.39577057780664,
            "source": 13,
            "target": 14
        },
        {
            "length": 70.75718093948329,
            "source": 14,
            "target": 15
        }
    ]
}