{
    "directed": false,
    "multigraph": false,
    "graph": {},
    "nodes": [
        {
            "latitude": 45.547542728,
            "longitude": 13.7306571,
            "location": "Koper / Capodistria",
            "country": "Slovenia",
            "id": 17
        },
        {
            "latitude": 46.55,
            "longitude": 15.633333333333,
            "location": "Maribor",
            "country": "Slovenia",
            "id": 1
        },
        {
            "latitude": 46.59004243,
            "longitude": 15.017967473,
            "location": "Dravograd",
            "country": "Slovenia",
            "id": 2
        },
        {
            "latitude": 46.366666666667,
            "longitude": 15.116666666667,
            "location": "Velenje",
            "country": "Slovenia",
            "id": 3
        },
        {
            "latitude": 46.22909194,
            "longitude": 15.264128741,
            "location": "Celje",
            "country": "Slovenia",
            "id": 4
        },
        {
            "latitude": 46.394136552,
            "longitude": 15.570726245,
            "location": "Slovenska Bistrica",
            "country": "Slovenia",
            "id": 5
        },
        {
            "latitude": 46.156303,
            "longitude": 15.238617,
            "location": "Lasko",
            "country": "Slovenia",
            "id": 6
        },
        {
            "latitude": 46.15,
            "longitude": 15.05,
            "location": "Trbovlje",
            "country": "Slovenia",
            "id": 7
        },
        {
            "latitude": 45.846325,
            "longitude": 15.424869,
            "location": "Kostanjevica na Krki",
            "country": "Slovenia",
            "id": 8
        },
        {
            "latitude": 45.798055555556,
            "longitude": 15.162777777778,
            "location": "Novo Mesto",
            "country": "Slovenia",
            "id": 9
        },
        {
            "latitude": 45.642961111111,
            "longitude": 14.859383333333,
            "location": "Ko\u0192\u00e7evje",
            "country": "Slovenia",
            "id": 10
        },
        {
            "latitude": 46.0513888888889,
            "longitude": 14.5061111111111,
            "location": "Ljubljana",
            "country": "Slovenia",
            "id": 11
        },
        {
            "latitude": 46.23887,
            "longitude": 14.35561,
            "location": "Kranj",
            "country": "Slovenia",
            "id": 12
        },
        {
            "latitude": 46.366666666667,
            "longitude": 14.116666666667,
            "location": "Bled",
            "country": "Slovenia",
            "id": 13
        },
        {
            "latitude": 46.183,
            "longitude": 13.733,
            "location": "Tolmin",
            "country": "Slovenia",
            "id": 14
        },
        {
            "latitude": 45.966666666667,
            "longitude": 13.65,
            "location": "Nova Gorica",
            "country": "Slovenia",
            "id": 15
        },
        {
            "latitude": 45.888356136,
            "longitude": 13.905237912,
            "location": "Ajdovscina",
            "country": "Slovenia",
            "id": 16
        }
    ],
    "links": [
        {
            "length": 71.52,
            "source": 1,
            "target": 2.0
        },
        {
            "length": 28.875,
            "source": 1,
            "target": 5.0
        },
        {
            "length": 39.825,
            "source": 2,
            "target": 3.0
        },
        {
            "length": 27.48,
            "source": 3,
            "target": 4.0
        },
        {
            "length": 44.94,
            "source": 4,
            "target": 5.0
        },
        {
            "length": 12.96,
            "source": 4,
            "target": 6.0
        },
        {
            "length": 92.22,
            "source": 4,
            "target": 11.0
        },
        {
            "length": 92.80499999999999,
            "source": 5,
            "target": 8.0
        },
        {
            "length": 20.97,
            "source": 6,
            "target": 7.0
        },
        {
            "length": 65.685,
            "source": 7,
            "target": 11.0
        },
        {
            "length": 29.94,
            "source": 8,
            "target": 9.0
        },
        {
            "length": 45.405,
            "source": 9,
            "target": 10.0
        },
        {
            "length": 79.035,
            "source": 10,
            "target": 11.0
        },
        {
            "length": 123.135,
            "source": 11,
            "target": 17.0
        },
        {
            "length": 36.705,
            "source": 11,
            "target": 12.0
        },
        {
            "length": 35.09999999999999,
            "source": 12,
            "target": 13.0
        },
        {
            "length": 53.325,
            "source": 13,
            "target": 14.0
        },
        {
            "length": 38.805,
            "source": 14,
            "target": 15.0
        },
        {
            "length": 32.04,
            "source": 15,
            "target": 16.0
        },
        {
            "length": 60.33,
            "source": 16,
            "target": 17.0
        }
    ]
}