{
    "directed": false,
    "multigraph": false,
    "graph": {},
    "nodes": [
        {
            "latitude": 56.16,
            "longitude": 10.21,
            "location": "Arhus",
            "country": "Denmark",
            "center_distance": 0.391717018040095,
            "id": 15
        },
        {
            "latitude": 55.4,
            "longitude": 10.39,
            "location": "Odense",
            "country": "Denmark",
            "center_distance": 0.5258411251403612,
            "id": 1
        },
        {
            "latitude": 55.31,
            "longitude": 10.79,
            "location": "Nyborg",
            "country": "Denmark",
            "center_distance": 0.6622050706205306,
            "id": 2
        },
        {
            "latitude": 55.4,
            "longitude": 11.35,
            "location": "Slagelse",
            "country": "Denmark",
            "center_distance": 0.981116144444113,
            "id": 7
        },
        {
            "latitude": 55.71,
            "longitude": 9.54,
            "location": "Vejle",
            "country": "Denmark",
            "center_distance": 0.993285233734778,
            "id": 3
        },
        {
            "latitude": 56.17,
            "longitude": 9.55,
            "location": "Silkeborg",
            "country": "Denmark",
            "center_distance": 0.9968126983318173,
            "id": 14
        },
        {
            "latitude": 56.64,
            "longitude": 9.79,
            "location": "Hobro",
            "country": "Denmark",
            "center_distance": 1.0262564115376998,
            "id": 13
        },
        {
            "latitude": 55.49,
            "longitude": 9.47,
            "location": "Kolding",
            "country": "Denmark",
            "center_distance": 1.124577945522472,
            "id": 4
        },
        {
            "latitude": 55.31,
            "longitude": 11.55,
            "location": "Fuglebjerg",
            "country": "Denmark",
            "center_distance": 1.1990255302628927,
            "id": 8
        },
        {
            "latitude": 55.72,
            "longitude": 11.72,
            "location": "Holbaek",
            "country": "Denmark",
            "center_distance": 1.2224001890633942,
            "id": 5
        },
        {
            "latitude": 57.05,
            "longitude": 9.92,
            "location": "Aalborg",
            "country": "Denmark",
            "center_distance": 1.2836726824060598,
            "id": 11
        },
        {
            "latitude": 56.77,
            "longitude": 9.34,
            "location": "Farso",
            "country": "Denmark",
            "center_distance": 1.4534288959407597,
            "id": 12
        },
        {
            "latitude": 56.14,
            "longitude": 8.97,
            "location": "Herning",
            "country": "Denmark",
            "center_distance": 1.5595220065420332,
            "id": 10
        },
        {
            "latitude": 55.77,
            "longitude": 12.5,
            "location": "Kongens Lyngby",
            "country": "Denmark",
            "center_distance": 1.992352601546445,
            "id": 6
        },
        {
            "latitude": 55.63,
            "longitude": 12.6,
            "location": "Tarnby",
            "country": "Denmark",
            "center_distance": 2.10620722838207,
            "id": 9
        }
    ],
    "links": [
        {
            "length": 97.73171142212857,
            "source": 15,
            "target": 3
        },
        {
            "length": 88.95188344508486,
            "source": 15,
            "target": 13
        },
        {
            "length": 40.7904531096874,
            "source": 1,
            "target": 2
        },
        {
            "length": 95.41272464370458,
            "source": 1,
            "target": 3
        },
        {
            "length": 88.32017008371076,
            "source": 1,
            "target": 4
        },
        {
            "length": 55.18001675264059,
            "source": 2,
            "target": 7
        },
        {
            "length": 72.14458617985376,
            "source": 2,
            "target": 8
        },
        {
            "length": 63.77164435587142,
            "source": 7,
            "target": 5
        },
        {
            "length": 89.33682810863385,
            "source": 3,
            "target": 10
        },
        {
            "length": 37.2824852980827,
            "source": 3,
            "target": 4
        },
        {
            "length": 54.11061870398387,
            "source": 14,
            "target": 10
        },
        {
            "length": 101.9283927314822,
            "source": 14,
            "target": 12
        },
        {
            "length": 69.40542136891197,
            "source": 13,
            "target": 11
        },
        {
            "length": 112.7083722562153,
            "source": 8,
            "target": 9
        },
        {
            "length": 73.70215853435309,
            "source": 5,
            "target": 6
        },
        {
            "length": 70.5016566089086,
            "source": 11,
            "target": 12
        },
        {
            "length": 25.1716208207202,
            "source": 6,
            "target": 9
        }
    ]
}