{
    "directed": false,
    "multigraph": false,
    "graph": {},
    "nodes": [
        {
            "latitude": 20.93,
            "longitude": 77.75,
            "location": "Amravati",
            "country": "India",
            "center_distance": 0.44041107197591894,
            "id": 65
        },
        {
            "latitude": 20.75,
            "longitude": 78.62,
            "location": "Wardha",
            "country": "India",
            "center_distance": 0.7979445052419163,
            "id": 64
        },
        {
            "latitude": 20.73,
            "longitude": 77.0,
            "location": "Akola",
            "country": "India",
            "center_distance": 0.8902032983082929,
            "id": 67
        },
        {
            "latitude": 21.15,
            "longitude": 79.1,
            "location": "Nagpur",
            "country": "India",
            "center_distance": 1.3973999789077518,
            "id": 63
        },
        {
            "latitude": 19.15,
            "longitude": 77.33,
            "location": "Nanded",
            "country": "India",
            "center_distance": 1.454210476341746,
            "id": 75
        },
        {
            "latitude": 19.95,
            "longitude": 79.3,
            "location": "Chandrapur",
            "country": "India",
            "center_distance": 1.541901130234233,
            "id": 80
        },
        {
            "latitude": 20.53,
            "longitude": 76.18,
            "location": "Buldana",
            "country": "India",
            "center_distance": 1.6811900369940151,
            "id": 66
        },
        {
            "latitude": 21.17,
            "longitude": 79.65,
            "location": "Bhandara",
            "country": "India",
            "center_distance": 1.9090285700672804,
            "id": 62
        },
        {
            "latitude": 21.83,
            "longitude": 76.33,
            "location": "Khandwa",
            "country": "India",
            "center_distance": 2.025516438317992,
            "id": 68
        },
        {
            "latitude": 21.02,
            "longitude": 75.57,
            "location": "Jalgaon",
            "country": "India",
            "center_distance": 2.348419893636145,
            "id": 98
        },
        {
            "latitude": 19.88,
            "longitude": 75.33,
            "location": "Aurangabad",
            "country": "India",
            "center_distance": 2.606725850333674,
            "id": 97
        },
        {
            "latitude": 23.27,
            "longitude": 77.4,
            "location": "Bhopal",
            "country": "India",
            "center_distance": 2.8043457115814774,
            "id": 93
        },
        {
            "latitude": 17.63,
            "longitude": 78.09,
            "location": "Sangareddi",
            "country": "India",
            "center_distance": 2.882913471010378,
            "id": 82
        },
        {
            "latitude": 22.72,
            "longitude": 75.83,
            "location": "Indore",
            "country": "India",
            "center_distance": 3.006066157506324,
            "id": 95
        },
        {
            "latitude": 23.53,
            "longitude": 77.82,
            "location": "Vidisha",
            "country": "India",
            "center_distance": 3.026474720902626,
            "id": 96
        },
        {
            "latitude": 20.9,
            "longitude": 74.78,
            "location": "Dhule",
            "country": "India",
            "center_distance": 3.1063558101674635,
            "id": 100
        },
        {
            "latitude": 17.38,
            "longitude": 78.47,
            "location": "Hyderabad",
            "country": "India",
            "center_distance": 3.1826156214675327,
            "id": 81
        },
        {
            "latitude": 22.6,
            "longitude": 75.3,
            "location": "Dhar",
            "country": "India",
            "center_distance": 3.309485079250807,
            "id": 87
        },
        {
            "latitude": 17.33,
            "longitude": 76.83,
            "location": "Gulbarga",
            "country": "India",
            "center_distance": 3.337058027442164,
            "id": 28
        },
        {
            "latitude": 23.17,
            "longitude": 79.95,
            "location": "Jabalpur",
            "country": "India",
            "center_distance": 3.3871207927134375,
            "id": 71
        },
        {
            "latitude": 23.18,
            "longitude": 75.77,
            "location": "Ujjain",
            "country": "India",
            "center_distance": 3.3962116338082797,
            "id": 88
        },
        {
            "latitude": 17.68,
            "longitude": 75.92,
            "location": "Solapur",
            "country": "India",
            "center_distance": 3.4265563869404425,
            "id": 25
        },
        {
            "latitude": 23.83,
            "longitude": 78.72,
            "location": "Sagar",
            "country": "India",
            "center_distance": 3.435330100330164,
            "id": 73
        },
        {
            "latitude": 19.08,
            "longitude": 74.73,
            "location": "Ahmadnagar",
            "country": "India",
            "center_distance": 3.439518464034113,
            "id": 76
        },
        {
            "latitude": 24.0,
            "longitude": 76.72,
            "location": "Rajgarh",
            "country": "India",
            "center_distance": 3.67766822898148,
            "id": 119
        },
        {
            "latitude": 23.83,
            "longitude": 79.45,
            "location": "Damoh",
            "country": "India",
            "center_distance": 3.6862655169717176,
            "id": 72
        },
        {
            "latitude": 21.23,
            "longitude": 81.63,
            "location": "Raipur",
            "country": "India",
            "center_distance": 3.8383368166372307,
            "id": 61
        },
        {
            "latitude": 23.32,
            "longitude": 75.07,
            "location": "Ratlam",
            "country": "India",
            "center_distance": 3.9649172695747965,
            "id": 94
        },
        {
            "latitude": 19.98,
            "longitude": 73.8,
            "location": "Nashik",
            "country": "India",
            "center_distance": 4.094627699416146,
            "id": 99
        },
        {
            "latitude": 16.2,
            "longitude": 77.37,
            "location": "Raichur",
            "country": "India",
            "center_distance": 4.33171857996119,
            "id": 27
        },
        {
            "latitude": 18.52,
            "longitude": 73.86,
            "location": "Pune",
            "country": "India",
            "center_distance": 4.465799134793113,
            "id": 77
        },
        {
            "latitude": 22.75,
            "longitude": 73.63,
            "location": "Godhra",
            "country": "India",
            "center_distance": 4.790265504380708,
            "id": 105
        },
        {
            "latitude": 17.68,
            "longitude": 73.98,
            "location": "Satara",
            "country": "India",
            "center_distance": 4.799574358731714,
            "id": 78
        },
        {
            "latitude": 16.52,
            "longitude": 80.62,
            "location": "Vijayawada",
            "country": "India",
            "center_distance": 4.845909987036485,
            "id": 58
        },
        {
            "latitude": 16.85,
            "longitude": 74.56,
            "location": "Sangli",
            "country": "India",
            "center_distance": 4.924102257171299,
            "id": 85
        },
        {
            "latitude": 20.63,
            "longitude": 72.93,
            "location": "Valsad",
            "country": "India",
            "center_distance": 4.932600513705906,
            "id": 101
        },
        {
            "latitude": 25.43,
            "longitude": 78.58,
            "location": "Jhansi",
            "country": "India",
            "center_distance": 4.978393309139804,
            "id": 20
        },
        {
            "latitude": 22.3,
            "longitude": 73.2,
            "location": "Vadodara",
            "country": "India",
            "center_distance": 4.995109010321486,
            "id": 106
        },
        {
            "latitude": 21.7,
            "longitude": 72.97,
            "location": "Bharuch",
            "country": "India",
            "center_distance": 5.035139613397367,
            "id": 103
        },
        {
            "latitude": 24.58,
            "longitude": 80.83,
            "location": "Satna",
            "country": "India",
            "center_distance": 5.0428591205289575,
            "id": 16
        },
        {
            "latitude": 21.17,
            "longitude": 72.83,
            "location": "Surat",
            "country": "India",
            "center_distance": 5.07490275460101,
            "id": 104
        },
        {
            "latitude": 25.18,
            "longitude": 75.83,
            "location": "Kota",
            "country": "India",
            "center_distance": 5.09820790907451,
            "id": 124
        },
        {
            "latitude": 19.01,
            "longitude": 72.85,
            "location": "Mumbai",
            "country": "India",
            "center_distance": 5.228903011249236,
            "id": 102
        },
        {
            "latitude": 16.7,
            "longitude": 74.22,
            "location": "Kolhapur",
            "country": "India",
            "center_distance": 5.265519376726777,
            "id": 84
        },
        {
            "latitude": 24.53,
            "longitude": 81.3,
            "location": "Rewa",
            "country": "India",
            "center_distance": 5.295005347554323,
            "id": 19
        },
        {
            "latitude": 22.57,
            "longitude": 72.93,
            "location": "Anand",
            "country": "India",
            "center_distance": 5.346381290016106,
            "id": 92
        },
        {
            "latitude": 15.2,
            "longitude": 76.68,
            "location": "Sandur",
            "country": "India",
            "center_distance": 5.433695984609745,
            "id": 21
        },
        {
            "latitude": 15.15,
            "longitude": 76.93,
            "location": "Bellary",
            "country": "India",
            "center_distance": 5.434145689720485,
            "id": 22
        },
        {
            "latitude": 15.5,
            "longitude": 80.05,
            "location": "Ongole",
            "country": "India",
            "center_distance": 5.461668727834081,
            "id": 57
        },
        {
            "latitude": 15.87,
            "longitude": 74.5,
            "location": "Belgaum",
            "country": "India",
            "center_distance": 5.72436501894013,
            "id": 26
        },
        {
            "latitude": 26.22,
            "longitude": 78.18,
            "location": "Gwalior",
            "country": "India",
            "center_distance": 5.72509215840043,
            "id": 118
        },
        {
            "latitude": 23.6,
            "longitude": 72.95,
            "location": "Himatnagar",
            "country": "India",
            "center_distance": 5.805533537823867,
            "id": 90
        },
        {
            "latitude": 15.35,
            "longitude": 75.17,
            "location": "Hubli",
            "country": "India",
            "center_distance": 5.814042369374542,
            "id": 24
        },
        {
            "latitude": 23.03,
            "longitude": 72.62,
            "location": "Ahmedabad",
            "country": "India",
            "center_distance": 5.818041386436731,
            "id": 91
        },
        {
            "latitude": 25.35,
            "longitude": 74.63,
            "location": "Bhilwara",
            "country": "India",
            "center_distance": 5.8245083160372015,
            "id": 125
        },
        {
            "latitude": 24.57,
            "longitude": 73.69,
            "location": "Udaipur",
            "country": "India",
            "center_distance": 5.825039316526493,
            "id": 2
        },
        {
            "latitude": 23.22,
            "longitude": 72.68,
            "location": "Ghandinagar",
            "country": "India",
            "center_distance": 5.849815569230274,
            "id": 89
        },
        {
            "latitude": 26.17,
            "longitude": 75.78,
            "location": "Tonk",
            "country": "India",
            "center_distance": 6.036248246902574,
            "id": 126
        },
        {
            "latitude": 17.7,
            "longitude": 83.3,
            "location": "Yarada",
            "country": "India",
            "center_distance": 6.119165339123496,
            "id": 79
        },
        {
            "latitude": 25.93,
            "longitude": 80.8,
            "location": "Fatehpur",
            "country": "India",
            "center_distance": 6.171014475659399,
            "id": 8
        },
        {
            "latitude": 25.45,
            "longitude": 81.85,
            "location": "Allahabad",
            "country": "India",
            "center_distance": 6.3542977535277645,
            "id": 10
        },
        {
            "latitude": 14.43,
            "longitude": 79.97,
            "location": "Nellore",
            "country": "India",
            "center_distance": 6.429542835011572,
            "id": 60
        },
        {
            "latitude": 15.48,
            "longitude": 73.83,
            "location": "Taleigao",
            "country": "India",
            "center_distance": 6.441074614845654,
            "id": 23
        },
        {
            "latitude": 14.23,
            "longitude": 76.4,
            "location": "Chitradurga",
            "country": "India",
            "center_distance": 6.441667612554132,
            "id": 29
        },
        {
            "latitude": 26.47,
            "longitude": 80.35,
            "location": "Kanpur",
            "country": "India",
            "center_distance": 6.46457268042428,
            "id": 7
        },
        {
            "latitude": 27.18,
            "longitude": 78.02,
            "location": "Agra",
            "country": "India",
            "center_distance": 6.678090618334339,
            "id": 121
        },
        {
            "latitude": 26.92,
            "longitude": 75.82,
            "location": "Jaipur",
            "country": "India",
            "center_distance": 6.7329941184916295,
            "id": 127
        },
        {
            "latitude": 26.45,
            "longitude": 74.63,
            "location": "Ajmer",
            "country": "India",
            "center_distance": 6.767313420139738,
            "id": 120
        },
        {
            "latitude": 27.5,
            "longitude": 77.68,
            "location": "Mathura",
            "country": "India",
            "center_distance": 6.9985377705920415,
            "id": 122
        },
        {
            "latitude": 13.65,
            "longitude": 79.42,
            "location": "Akkarampalle",
            "country": "India",
            "center_distance": 7.028878855739165,
            "id": 59
        },
        {
            "latitude": 26.85,
            "longitude": 80.92,
            "location": "Lucknow",
            "country": "India",
            "center_distance": 7.044983027373522,
            "id": 6
        },
        {
            "latitude": 25.33,
            "longitude": 83.0,
            "location": "Varanasi",
            "country": "India",
            "center_distance": 7.049939362215153,
            "id": 1
        },
        {
            "latitude": 26.62,
            "longitude": 81.37,
            "location": "Zaidpur",
            "country": "India",
            "center_distance": 7.051315326080093,
            "id": 3
        },
        {
            "latitude": 25.73,
            "longitude": 82.68,
            "location": "Jaunpur",
            "country": "India",
            "center_distance": 7.1088700750052425,
            "id": 9
        },
        {
            "latitude": 22.2,
            "longitude": 84.88,
            "location": "Banposh",
            "country": "India",
            "center_distance": 7.221055573976695,
            "id": 35
        },
        {
            "latitude": 13.13,
            "longitude": 78.13,
            "location": "Kolar",
            "country": "India",
            "center_distance": 7.37870832600167,
            "id": 54
        },
        {
            "latitude": 12.98,
            "longitude": 77.6,
            "location": "Bangalore",
            "country": "India",
            "center_distance": 7.528328000007659,
            "id": 53
        },
        {
            "latitude": 27.57,
            "longitude": 80.68,
            "location": "Sitapur",
            "country": "India",
            "center_distance": 7.607758082318312,
            "id": 4
        },
        {
            "latitude": 13.0,
            "longitude": 76.1,
            "location": "Hassan",
            "country": "India",
            "center_distance": 7.707666839550223,
            "id": 55
        },
        {
            "latitude": 20.67,
            "longitude": 85.6,
            "location": "Dhenkanal",
            "country": "India",
            "center_distance": 7.7407984409793515,
            "id": 70
        },
        {
            "latitude": 13.09,
            "longitude": 80.28,
            "location": "George Town",
            "country": "India",
            "center_distance": 7.798467884715485,
            "id": 51
        },
        {
            "latitude": 12.83,
            "longitude": 79.72,
            "location": "Kanchipuram",
            "country": "India",
            "center_distance": 7.895769945931787,
            "id": 52
        },
        {
            "latitude": 20.23,
            "longitude": 85.83,
            "location": "Bhubaneshwar",
            "country": "India",
            "center_distance": 7.973716414672327,
            "id": 69
        },
        {
            "latitude": 23.35,
            "longitude": 85.33,
            "location": "Ranchi",
            "country": "India",
            "center_distance": 7.992934992832298,
            "id": 31
        },
        {
            "latitude": 28.35,
            "longitude": 79.42,
            "location": "Bareilly",
            "country": "India",
            "center_distance": 7.9995834361393845,
            "id": 50
        },
        {
            "latitude": 28.47,
            "longitude": 77.03,
            "location": "Gurgaon",
            "country": "India",
            "center_distance": 8.009421649017831,
            "id": 42
        },
        {
            "latitude": 28.58,
            "longitude": 77.33,
            "location": "Noida",
            "country": "India",
            "center_distance": 8.093633731689458,
            "id": 45
        },
        {
            "latitude": 28.64,
            "longitude": 77.22,
            "location": "New Delhi",
            "country": "India",
            "center_distance": 8.161407203792844,
            "id": 47
        },
        {
            "latitude": 28.67,
            "longitude": 77.43,
            "location": "Ghaziabad",
            "country": "India",
            "center_distance": 8.177562307472845,
            "id": 123
        },
        {
            "latitude": 12.87,
            "longitude": 74.88,
            "location": "Mangalore",
            "country": "India",
            "center_distance": 8.195195084663897,
            "id": 38
        },
        {
            "latitude": 23.98,
            "longitude": 85.35,
            "location": "Hazaribag",
            "country": "India",
            "center_distance": 8.256468907089003,
            "id": 13
        },
        {
            "latitude": 24.7,
            "longitude": 84.98,
            "location": "Bodh Gaya",
            "country": "India",
            "center_distance": 8.26368152428773,
            "id": 14
        },
        {
            "latitude": 12.31,
            "longitude": 76.65,
            "location": "Mysore",
            "country": "India",
            "center_distance": 8.28280698131882,
            "id": 56
        },
        {
            "latitude": 28.83,
            "longitude": 78.78,
            "location": "Moradabad",
            "country": "India",
            "center_distance": 8.376762287385333,
            "id": 49
        },
        {
            "latitude": 28.98,
            "longitude": 77.7,
            "location": "Meerut",
            "country": "India",
            "center_distance": 8.477725824285399,
            "id": 46
        },
        {
            "latitude": 28.9,
            "longitude": 76.57,
            "location": "Rohtak",
            "country": "India",
            "center_distance": 8.494867378098013,
            "id": 41
        },
        {
            "latitude": 28.98,
            "longitude": 77.02,
            "location": "Sonipat",
            "country": "India",
            "center_distance": 8.517815212648484,
            "id": 48
        },
        {
            "latitude": 22.8,
            "longitude": 86.18,
            "location": "Jamshedpur",
            "country": "India",
            "center_distance": 8.630093675151894,
            "id": 32
        },
        {
            "latitude": 23.78,
            "longitude": 85.97,
            "location": "Bokaro",
            "country": "India",
            "center_distance": 8.745832001889635,
            "id": 12
        },
        {
            "latitude": 11.93,
            "longitude": 79.83,
            "location": "Puducherry",
            "country": "India",
            "center_distance": 8.796994441745074,
            "id": 135
        },
        {
            "latitude": 11.65,
            "longitude": 78.17,
            "location": "Salem",
            "country": "India",
            "center_distance": 8.859193757052337,
            "id": 132
        },
        {
            "latitude": 25.6,
            "longitude": 85.12,
            "location": "Patna",
            "country": "India",
            "center_distance": 8.869301618960414,
            "id": 11
        },
        {
            "latitude": 11.87,
            "longitude": 75.36,
            "location": "Cannanore",
            "country": "India",
            "center_distance": 8.988741938148456,
            "id": 37
        },
        {
            "latitude": 11.35,
            "longitude": 77.73,
            "location": "Erode",
            "country": "India",
            "center_distance": 9.154739937364129,
            "id": 131
        },
        {
            "latitude": 23.8,
            "longitude": 86.45,
            "location": "Dhanbad",
            "country": "India",
            "center_distance": 9.199786889582152,
            "id": 17
        },
        {
            "latitude": 29.68,
            "longitude": 76.98,
            "location": "Karnal",
            "country": "India",
            "center_distance": 9.218390907658634,
            "id": 107
        },
        {
            "latitude": 11.4,
            "longitude": 79.7,
            "location": "Chidambaram",
            "country": "India",
            "center_distance": 9.287690699632359,
            "id": 134
        },
        {
            "latitude": 11.1,
            "longitude": 77.35,
            "location": "Tiruppur",
            "country": "India",
            "center_distance": 9.417675616891628,
            "id": 130
        },
        {
            "latitude": 11.25,
            "longitude": 75.77,
            "location": "Kozhikode",
            "country": "India",
            "center_distance": 9.48710117332383,
            "id": 40
        },
        {
            "latitude": 11.25,
            "longitude": 75.77,
            "location": "Kozhikode",
            "country": "India",
            "center_distance": 9.48710117332383,
            "id": 74
        },
        {
            "latitude": 10.98,
            "longitude": 77.3,
            "location": "Palladam",
            "country": "India",
            "center_distance": 9.540310544872254,
            "id": 133
        },
        {
            "latitude": 11.0,
            "longitude": 76.97,
            "location": "Coimbatore",
            "country": "India",
            "center_distance": 9.545476619014371,
            "id": 33
        },
        {
            "latitude": 22.33,
            "longitude": 87.33,
            "location": "Kharagpur",
            "country": "India",
            "center_distance": 9.643506825017035,
            "id": 36
        },
        {
            "latitude": 23.68,
            "longitude": 86.98,
            "location": "Asansol",
            "country": "India",
            "center_distance": 9.65632675603728,
            "id": 18
        },
        {
            "latitude": 10.8,
            "longitude": 78.7,
            "location": "Tiruchirappalli",
            "country": "India",
            "center_distance": 9.74000686567032,
            "id": 129
        },
        {
            "latitude": 10.78,
            "longitude": 76.65,
            "location": "Palakkad",
            "country": "India",
            "center_distance": 9.798919741966568,
            "id": 39
        },
        {
            "latitude": 30.32,
            "longitude": 78.03,
            "location": "Dehradun",
            "country": "India",
            "center_distance": 9.817652107211499,
            "id": 5
        },
        {
            "latitude": 30.33,
            "longitude": 76.4,
            "location": "Patiala",
            "country": "India",
            "center_distance": 9.93421516408837,
            "id": 141
        },
        {
            "latitude": 30.38,
            "longitude": 76.78,
            "location": "Ambala",
            "country": "India",
            "center_distance": 9.93517998573446,
            "id": 86
        },
        {
            "latitude": 10.52,
            "longitude": 76.22,
            "location": "Trichur",
            "country": "India",
            "center_distance": 10.117764252126792,
            "id": 34
        },
        {
            "latitude": 30.2,
            "longitude": 74.95,
            "location": "Bhatinda",
            "country": "India",
            "center_distance": 10.123738381335587,
            "id": 43
        },
        {
            "latitude": 30.73,
            "longitude": 76.79,
            "location": "Chandigarh",
            "country": "India",
            "center_distance": 10.28212622266415,
            "id": 83
        },
        {
            "latitude": 30.58,
            "longitude": 74.9,
            "location": "Kotkapura",
            "country": "India",
            "center_distance": 10.502246772211718,
            "id": 44
        },
        {
            "latitude": 9.93,
            "longitude": 78.12,
            "location": "Madurai",
            "country": "India",
            "center_distance": 10.576974723742385,
            "id": 143
        },
        {
            "latitude": 30.9,
            "longitude": 75.85,
            "location": "Ludhiana",
            "country": "India",
            "center_distance": 10.588908358380385,
            "id": 140
        },
        {
            "latitude": 9.98,
            "longitude": 76.28,
            "location": "Cochin",
            "country": "India",
            "center_distance": 10.641895610933663,
            "id": 110
        },
        {
            "latitude": 22.57,
            "longitude": 88.37,
            "location": "Kolkata",
            "country": "India",
            "center_distance": 10.710207646344315,
            "id": 15
        },
        {
            "latitude": 30.85,
            "longitude": 74.93,
            "location": "Talwandi Bhai",
            "country": "India",
            "center_distance": 10.753347134189204,
            "id": 108
        },
        {
            "latitude": 9.58,
            "longitude": 76.52,
            "location": "Kottayam",
            "country": "India",
            "center_distance": 11.005803523963786,
            "id": 112
        },
        {
            "latitude": 9.45,
            "longitude": 77.82,
            "location": "Sivakasi",
            "country": "India",
            "center_distance": 11.053878801588446,
            "id": 128
        },
        {
            "latitude": 31.33,
            "longitude": 75.58,
            "location": "Jalandhar",
            "country": "India",
            "center_distance": 11.063880069578165,
            "id": 139
        },
        {
            "latitude": 9.48,
            "longitude": 76.32,
            "location": "Alleppey",
            "country": "India",
            "center_distance": 11.130986754896044,
            "id": 117
        },
        {
            "latitude": 9.38,
            "longitude": 78.83,
            "location": "Ramanathapuram",
            "country": "India",
            "center_distance": 11.165929312210285,
            "id": 142
        },
        {
            "latitude": 31.53,
            "longitude": 75.92,
            "location": "Hoshiarpur",
            "country": "India",
            "center_distance": 11.195733591181654,
            "id": 137
        },
        {
            "latitude": 9.38,
            "longitude": 76.57,
            "location": "Tiruvalla",
            "country": "India",
            "center_distance": 11.19846568701735,
            "id": 111
        },
        {
            "latitude": 31.63,
            "longitude": 74.87,
            "location": "Amritsar",
            "country": "India",
            "center_distance": 11.521209159800376,
            "id": 138
        },
        {
            "latitude": 8.88,
            "longitude": 76.6,
            "location": "Kollam",
            "country": "India",
            "center_distance": 11.692000573267041,
            "id": 109
        },
        {
            "latitude": 8.73,
            "longitude": 77.7,
            "location": "Tirunelveli",
            "country": "India",
            "center_distance": 11.774903364200606,
            "id": 113
        },
        {
            "latitude": 32.28,
            "longitude": 75.65,
            "location": "Pathankot",
            "country": "India",
            "center_distance": 11.981956385070315,
            "id": 136
        },
        {
            "latitude": 8.48,
            "longitude": 78.12,
            "location": "Tiruchchendur",
            "country": "India",
            "center_distance": 12.02659230520846,
            "id": 114
        },
        {
            "latitude": 8.48,
            "longitude": 76.92,
            "location": "Thiruvananthapuram",
            "country": "India",
            "center_distance": 12.060567510398606,
            "id": 116
        },
        {
            "latitude": 8.08,
            "longitude": 77.57,
            "location": "Kanniyakumari",
            "country": "India",
            "center_distance": 12.427210034286166,
            "id": 115
        }
    ],
    "links": [
        {
            "length": 213.3362961128591,
            "source": 65,
            "target": 63
        },
        {
            "length": 253.833740275588,
            "source": 65,
            "target": 66
        },
        {
            "length": 100.2064699197975,
            "source": 64,
            "target": 63
        },
        {
            "length": 170.6238664387044,
            "source": 64,
            "target": 80
        },
        {
            "length": 228.044855428742,
            "source": 67,
            "target": 98
        },
        {
            "length": 85.61559090841276,
            "source": 63,
            "target": 62
        },
        {
            "length": 337.1693302450351,
            "source": 75,
            "target": 97
        },
        {
            "length": 280.6115394079156,
            "source": 75,
            "target": 82
        },
        {
            "length": 448.2683560360366,
            "source": 80,
            "target": 81
        },
        {
            "length": 125.4143857718877,
            "source": 66,
            "target": 98
        },
        {
            "length": 308.0595097638687,
            "source": 62,
            "target": 61
        },
        {
            "length": 179.3787367644761,
            "source": 68,
            "target": 98
        },
        {
            "length": 204.4226761982741,
            "source": 68,
            "target": 87
        },
        {
            "length": 193.80717387162,
            "source": 98,
            "target": 97
        },
        {
            "length": 124.6641481171551,
            "source": 98,
            "target": 100
        },
        {
            "length": 427.1124731011852,
            "source": 98,
            "target": 104
        },
        {
            "length": 163.4189114279327,
            "source": 97,
            "target": 76
        },
        {
            "length": 250.2892493555508,
            "source": 93,
            "target": 88
        },
        {
            "length": 160.0659963977776,
            "source": 93,
            "target": 119
        },
        {
            "length": 73.43322370149052,
            "source": 82,
            "target": 81
        },
        {
            "length": 637.2267822230767,
            "source": 95,
            "target": 71
        },
        {
            "length": 83.99558538722192,
            "source": 95,
            "target": 87
        },
        {
            "length": 77.27594529123328,
            "source": 95,
            "target": 88
        },
        {
            "length": 333.8032974720595,
            "source": 95,
            "target": 96
        },
        {
            "length": 253.2786413270468,
            "source": 95,
            "target": 119
        },
        {
            "length": 146.2968110427428,
            "source": 96,
            "target": 73
        },
        {
            "length": 216.807164510884,
            "source": 100,
            "target": 99
        },
        {
            "length": 263.7947773961517,
            "source": 81,
            "target": 27
        },
        {
            "length": 261.2189601993583,
            "source": 81,
            "target": 28
        },
        {
            "length": 371.8038509563951,
            "source": 81,
            "target": 58
        },
        {
            "length": 120.723233197182,
            "source": 87,
            "target": 88
        },
        {
            "length": 156.0800707320108,
            "source": 28,
            "target": 25
        },
        {
            "length": 270.7789283623355,
            "source": 71,
            "target": 16
        },
        {
            "length": 414.7296192885758,
            "source": 71,
            "target": 61
        },
        {
            "length": 134.0419380310225,
            "source": 71,
            "target": 72
        },
        {
            "length": 109.7850962716841,
            "source": 88,
            "target": 94
        },
        {
            "length": 377.5678061965345,
            "source": 25,
            "target": 26
        },
        {
            "length": 300.0045152055997,
            "source": 25,
            "target": 76
        },
        {
            "length": 111.3782008045896,
            "source": 73,
            "target": 72
        },
        {
            "length": 306.2585139321673,
            "source": 73,
            "target": 119
        },
        {
            "length": 209.536517078979,
            "source": 76,
            "target": 99
        },
        {
            "length": 166.1141160310144,
            "source": 76,
            "target": 77
        },
        {
            "length": 430.9498118761562,
            "source": 119,
            "target": 118
        },
        {
            "length": 238.653152560207,
            "source": 119,
            "target": 124
        },
        {
            "length": 528.9400862166294,
            "source": 61,
            "target": 35
        },
        {
            "length": 625.386926056475,
            "source": 61,
            "target": 70
        },
        {
            "length": 378.7630804237385,
            "source": 94,
            "target": 91
        },
        {
            "length": 345.1272294369306,
            "source": 94,
            "target": 125
        },
        {
            "length": 220.1949058505418,
            "source": 99,
            "target": 102
        },
        {
            "length": 200.2358807358277,
            "source": 27,
            "target": 21
        },
        {
            "length": 179.224401832357,
            "source": 77,
            "target": 102
        },
        {
            "length": 141.391337049615,
            "source": 77,
            "target": 78
        },
        {
            "length": 162.0687110205617,
            "source": 105,
            "target": 91
        },
        {
            "length": 100.1120675426622,
            "source": 105,
            "target": 106
        },
        {
            "length": 167.870329434951,
            "source": 78,
            "target": 84
        },
        {
            "length": 166.4301382348482,
            "source": 78,
            "target": 85
        },
        {
            "length": 193.1175909878002,
            "source": 58,
            "target": 57
        },
        {
            "length": 59.78306469234825,
            "source": 85,
            "target": 84
        },
        {
            "length": 91.4057734926104,
            "source": 101,
            "target": 104
        },
        {
            "length": 270.4950766270847,
            "source": 101,
            "target": 102
        },
        {
            "length": 492.5246191765447,
            "source": 20,
            "target": 10
        },
        {
            "length": 368.4657255307114,
            "source": 20,
            "target": 16
        },
        {
            "length": 144.8055272306345,
            "source": 20,
            "target": 118
        },
        {
            "length": 106.208374068456,
            "source": 106,
            "target": 103
        },
        {
            "length": 91.0329324598627,
            "source": 103,
            "target": 104
        },
        {
            "length": 71.78883880714096,
            "source": 16,
            "target": 19
        },
        {
            "length": 165.2954337791515,
            "source": 124,
            "target": 126
        },
        {
            "length": 145.5146355388302,
            "source": 84,
            "target": 26
        },
        {
            "length": 174.5275674613879,
            "source": 19,
            "target": 10
        },
        {
            "length": 115.0189767605567,
            "source": 92,
            "target": 89
        },
        {
            "length": 90.32514367523387,
            "source": 92,
            "target": 91
        },
        {
            "length": 399.0668861266318,
            "source": 21,
            "target": 53
        },
        {
            "length": 41.0991242599405,
            "source": 21,
            "target": 22
        },
        {
            "length": 408.5874012538538,
            "source": 22,
            "target": 26
        },
        {
            "length": 178.932791281606,
            "source": 57,
            "target": 60
        },
        {
            "length": 635.973268594588,
            "source": 57,
            "target": 79
        },
        {
            "length": 138.2257190919337,
            "source": 26,
            "target": 24
        },
        {
            "length": 125.7297277706751,
            "source": 26,
            "target": 23
        },
        {
            "length": 161.8858131293462,
            "source": 118,
            "target": 121
        },
        {
            "length": 75.66422305467474,
            "source": 90,
            "target": 89
        },
        {
            "length": 107.6734956745195,
            "source": 90,
            "target": 91
        },
        {
            "length": 216.5494017249914,
            "source": 24,
            "target": 23
        },
        {
            "length": 419.8200075335097,
            "source": 24,
            "target": 55
        },
        {
            "length": 304.3656528286264,
            "source": 91,
            "target": 2
        },
        {
            "length": 192.6892090188163,
            "source": 125,
            "target": 2
        },
        {
            "length": 316.7344903312788,
            "source": 125,
            "target": 127
        },
        {
            "length": 220.3345295545711,
            "source": 125,
            "target": 126
        },
        {
            "length": 125.2365872911352,
            "source": 126,
            "target": 127
        },
        {
            "length": 613.6989979631252,
            "source": 79,
            "target": 70
        },
        {
            "length": 112.4612394025133,
            "source": 8,
            "target": 7
        },
        {
            "length": 176.9651072038993,
            "source": 8,
            "target": 10
        },
        {
            "length": 157.6246503392919,
            "source": 60,
            "target": 59
        },
        {
            "length": 467.2649324706443,
            "source": 23,
            "target": 38
        },
        {
            "length": 334.9599180470667,
            "source": 29,
            "target": 38
        },
        {
            "length": 106.0000259322231,
            "source": 7,
            "target": 6
        },
        {
            "length": 73.39171279401027,
            "source": 121,
            "target": 122
        },
        {
            "length": 353.5213518954667,
            "source": 127,
            "target": 47
        },
        {
            "length": 193.894647294861,
            "source": 127,
            "target": 120
        },
        {
            "length": 201.8351839484639,
            "source": 122,
            "target": 47
        },
        {
            "length": 167.9265118213634,
            "source": 59,
            "target": 51
        },
        {
            "length": 145.1838746590077,
            "source": 59,
            "target": 52
        },
        {
            "length": 226.5701785675395,
            "source": 59,
            "target": 54
        },
        {
            "length": 77.23367765648376,
            "source": 6,
            "target": 3
        },
        {
            "length": 716.9541938710462,
            "source": 6,
            "target": 5
        },
        {
            "length": 322.7403601786847,
            "source": 6,
            "target": 9
        },
        {
            "length": 82.28443674866418,
            "source": 1,
            "target": 9
        },
        {
            "length": 322.4038089168337,
            "source": 1,
            "target": 11
        },
        {
            "length": 188.6905206008253,
            "source": 3,
            "target": 4
        },
        {
            "length": 223.929340535442,
            "source": 35,
            "target": 32
        },
        {
            "length": 89.67583392484002,
            "source": 54,
            "target": 53
        },
        {
            "length": 272.6965442586336,
            "source": 53,
            "target": 131
        },
        {
            "length": 240.4938020848132,
            "source": 53,
            "target": 132
        },
        {
            "length": 190.7669459019682,
            "source": 53,
            "target": 56
        },
        {
            "length": 226.6756743939493,
            "source": 4,
            "target": 50
        },
        {
            "length": 81.71839794309184,
            "source": 70,
            "target": 69
        },
        {
            "length": 151.1790205989594,
            "source": 52,
            "target": 135
        },
        {
            "length": 420.7437693242114,
            "source": 69,
            "target": 36
        },
        {
            "length": 105.1236146474107,
            "source": 31,
            "target": 13
        },
        {
            "length": 484.6531508220303,
            "source": 31,
            "target": 15
        },
        {
            "length": 123.2682293315778,
            "source": 50,
            "target": 49
        },
        {
            "length": 98.35759511785602,
            "source": 42,
            "target": 41
        },
        {
            "length": 39.73427762873913,
            "source": 42,
            "target": 47
        },
        {
            "length": 18.96273021027478,
            "source": 45,
            "target": 47
        },
        {
            "length": 63.79900740463339,
            "source": 47,
            "target": 48
        },
        {
            "length": 31.14110410382644,
            "source": 47,
            "target": 123
        },
        {
            "length": 65.03913878096603,
            "source": 123,
            "target": 46
        },
        {
            "length": 184.2146300228717,
            "source": 38,
            "target": 37
        },
        {
            "length": 306.7285957777445,
            "source": 38,
            "target": 74
        },
        {
            "length": 100.2702573669723,
            "source": 13,
            "target": 12
        },
        {
            "length": 132.6017942845417,
            "source": 13,
            "target": 14
        },
        {
            "length": 151.5939480939664,
            "source": 14,
            "target": 11
        },
        {
            "length": 227.8227289762589,
            "source": 56,
            "target": 74
        },
        {
            "length": 159.6665963556562,
            "source": 49,
            "target": 46
        },
        {
            "length": 239.7834386118825,
            "source": 41,
            "target": 141
        },
        {
            "length": 67.02560184594475,
            "source": 41,
            "target": 48
        },
        {
            "length": 116.8994618030206,
            "source": 48,
            "target": 107
        },
        {
            "length": 166.5924906938747,
            "source": 32,
            "target": 12
        },
        {
            "length": 73.3335019369858,
            "source": 12,
            "target": 17
        },
        {
            "length": 155.116322269382,
            "source": 12,
            "target": 18
        },
        {
            "length": 275.0276220686216,
            "source": 135,
            "target": 132
        },
        {
            "length": 90.91470384309093,
            "source": 135,
            "target": 134
        },
        {
            "length": 123.2174399865173,
            "source": 37,
            "target": 40
        },
        {
            "length": 74.85762920439272,
            "source": 131,
            "target": 130
        },
        {
            "length": 83.35822053178174,
            "source": 17,
            "target": 18
        },
        {
            "length": 120.2735173236494,
            "source": 107,
            "target": 86
        },
        {
            "length": 398.8890567765746,
            "source": 134,
            "target": 133
        },
        {
            "length": 64.40331490798732,
            "source": 130,
            "target": 33
        },
        {
            "length": 164.0192974547643,
            "source": 40,
            "target": 39
        },
        {
            "length": 231.261002578821,
            "source": 133,
            "target": 129
        },
        {
            "length": 293.7718231496656,
            "source": 33,
            "target": 128
        },
        {
            "length": 285.3013702092679,
            "source": 33,
            "target": 129
        },
        {
            "length": 275.0568507679119,
            "source": 33,
            "target": 117
        },
        {
            "length": 165.2393647733126,
            "source": 36,
            "target": 15
        },
        {
            "length": 267.5408783656927,
            "source": 129,
            "target": 128
        },
        {
            "length": 82.75734945470039,
            "source": 39,
            "target": 34
        },
        {
            "length": 123.5774710759739,
            "source": 141,
            "target": 140
        },
        {
            "length": 58.39500332607588,
            "source": 86,
            "target": 83
        },
        {
            "length": 174.2400333654625,
            "source": 34,
            "target": 117
        },
        {
            "length": 108.4531271292985,
            "source": 43,
            "target": 108
        },
        {
            "length": 137.6034626014116,
            "source": 83,
            "target": 140
        },
        {
            "length": 175.1844034977287,
            "source": 44,
            "target": 138
        },
        {
            "length": 45.23894281063156,
            "source": 44,
            "target": 108
        },
        {
            "length": 211.7512562210646,
            "source": 143,
            "target": 113
        },
        {
            "length": 94.03447755922436,
            "source": 143,
            "target": 128
        },
        {
            "length": 131.9669646003746,
            "source": 140,
            "target": 108
        },
        {
            "length": 81.42686899478005,
            "source": 140,
            "target": 139
        },
        {
            "length": 190.8769527899674,
            "source": 110,
            "target": 109
        },
        {
            "length": 77.50692560766674,
            "source": 110,
            "target": 112
        },
        {
            "length": 110.8537706344338,
            "source": 110,
            "target": 111
        },
        {
            "length": 36.8847071043568,
            "source": 112,
            "target": 117
        },
        {
            "length": 121.7059262199101,
            "source": 128,
            "target": 113
        },
        {
            "length": 166.600593747453,
            "source": 128,
            "target": 142
        },
        {
            "length": 58.77300030484253,
            "source": 139,
            "target": 137
        },
        {
            "length": 130.8055991712941,
            "source": 137,
            "target": 136
        },
        {
            "length": 154.7191363798472,
            "source": 138,
            "target": 136
        },
        {
            "length": 85.05877827745522,
            "source": 109,
            "target": 116
        },
        {
            "length": 80.8471272600741,
            "source": 113,
            "target": 114
        },
        {
            "length": 110.516634346667,
            "source": 113,
            "target": 115
        },
        {
            "length": 112.6589803743167,
            "source": 114,
            "target": 115
        },
        {
            "length": 126.3374844031222,
            "source": 116,
            "target": 115
        }
    ]
}