{
    "directed": false,
    "multigraph": false,
    "graph": {},
    "nodes": [
        {
            "latitude": 35.4729886,
            "longitude": -97.5170536,
            "location": "Oklahoma City",
            "country": "USA",
            "center_distance": 3.2461589651227123,
            "id": 8
        },
        {
            "latitude": 39.7990175,
            "longitude": -89.6439575,
            "location": "Springfield",
            "country": "USA",
            "center_distance": 5.769558280999992,
            "id": 10
        },
        {
            "latitude": 29.7589382,
            "longitude": -95.3676974,
            "location": "Houston",
            "country": "USA",
            "center_distance": 7.604922956980854,
            "id": 9
        },
        {
            "latitude": 44.9772995,
            "longitude": -93.2654692,
            "location": "Minneapolis",
            "country": "USA",
            "center_distance": 7.796166933622044,
            "id": 7
        },
        {
            "latitude": 36.1622767,
            "longitude": -86.7742984,
            "location": "Nashville",
            "country": "USA",
            "center_distance": 8.178717110814393,
            "id": 12
        },
        {
            "latitude": 29.9759983,
            "longitude": -90.0782127,
            "location": "New orleans",
            "country": "USA",
            "center_distance": 8.790127909997713,
            "id": 11
        },
        {
            "latitude": 39.7683331,
            "longitude": -86.1583502,
            "location": "Indianapolis",
            "country": "USA",
            "center_distance": 9.038619140324217,
            "id": 20
        },
        {
            "latitude": 39.7392364,
            "longitude": -104.984862,
            "location": "Denver",
            "country": "USA",
            "center_distance": 10.39703202433993,
            "id": 6
        },
        {
            "latitude": 33.7489924,
            "longitude": -84.3902644,
            "location": "Atlanta",
            "country": "USA",
            "center_distance": 11.077179696177913,
            "id": 13
        },
        {
            "latitude": 42.3315509,
            "longitude": -83.0466403,
            "location": "Detroit",
            "country": "USA",
            "center_distance": 12.827948535457807,
            "id": 18
        },
        {
            "latitude": 34.0003117,
            "longitude": -81.0331309,
            "location": "Columbia, south carolina",
            "country": "USA",
            "center_distance": 14.232721579010411,
            "id": 15
        },
        {
            "latitude": 30.3321838,
            "longitude": -81.655651,
            "location": "Jacksonville",
            "country": "USA",
            "center_distance": 14.95808697989438,
            "id": 14
        },
        {
            "latitude": 40.4416941,
            "longitude": -79.9900861,
            "location": "Pittsburgh",
            "country": "USA",
            "center_distance": 15.195025305645498,
            "id": 17
        },
        {
            "latitude": 40.7596198,
            "longitude": -111.886797,
            "location": "Salt Lake City",
            "country": "USA",
            "center_distance": 17.35877863472922,
            "id": 4
        },
        {
            "latitude": 38.8950368,
            "longitude": -77.0365427,
            "location": "Washington",
            "country": "USA",
            "center_distance": 17.89720733042653,
            "id": 16
        },
        {
            "latitude": 40.7127281,
            "longitude": -74.0060152,
            "location": "New york",
            "country": "USA",
            "center_distance": 21.1304090296228,
            "id": 19
        },
        {
            "latitude": 32.7174202,
            "longitude": -117.162772,
            "location": "San Diego",
            "country": "USA",
            "center_distance": 22.77171042555193,
            "id": 5
        },
        {
            "latitude": 34.0536909,
            "longitude": -118.242766,
            "location": "Los Angeles",
            "country": "USA",
            "center_distance": 23.606956285346378,
            "id": 3
        },
        {
            "latitude": 37.7792588,
            "longitude": -122.4193286,
            "location": "San Francisco",
            "country": "USA",
            "center_distance": 27.556009323935317,
            "id": 2
        },
        {
            "latitude": 45.5202471,
            "longitude": -122.674194,
            "location": "Portland",
            "country": "USA",
            "center_distance": 28.983665507773214,
            "id": 1
        }
    ],
    "links": [
        {
            "length": 1215.85558674533,
            "source": 8,
            "target": 6
        },
        {
            "length": 2289.49496308338,
            "source": 8,
            "target": 5
        },
        {
            "length": 1456.74238923334,
            "source": 8,
            "target": 12
        },
        {
            "length": 1540.01331009159,
            "source": 10,
            "target": 9
        },
        {
            "length": 714.232708493518,
            "source": 10,
            "target": 12
        },
        {
            "length": 971.861293046117,
            "source": 10,
            "target": 7
        },
        {
            "length": 2617.82611363942,
            "source": 9,
            "target": 5
        },
        {
            "length": 1500.0,
            "source": 9,
            "target": 12
        },
        {
            "length": 765.854530392122,
            "source": 9,
            "target": 11
        },
        {
            "length": 2862.65129924126,
            "source": 7,
            "target": 1
        },
        {
            "length": 1308.64012980237,
            "source": 7,
            "target": 18
        },
        {
            "length": 1365.46574312549,
            "source": 12,
            "target": 16
        },
        {
            "length": 1022.06273938179,
            "source": 11,
            "target": 13
        },
        {
            "length": 1215.88923602322,
            "source": 11,
            "target": 14
        },
        {
            "length": 1179.79022734108,
            "source": 20,
            "target": 15
        },
        {
            "length": 1031.33977650974,
            "source": 20,
            "target": 13
        },
        {
            "length": 579.54836901716,
            "source": 20,
            "target": 18
        },
        {
            "length": 894.712037640818,
            "source": 6,
            "target": 4
        },
        {
            "length": 1669.72936135601,
            "source": 6,
            "target": 3
        },
        {
            "length": 688.597340870633,
            "source": 13,
            "target": 14
        },
        {
            "length": 1500.58239078238,
            "source": 13,
            "target": 19
        },
        {
            "length": 495.582279184814,
            "source": 18,
            "target": 17
        },
        {
            "length": 618.093234639063,
            "source": 15,
            "target": 14
        },
        {
            "length": 976.493021315393,
            "source": 15,
            "target": 16
        },
        {
            "length": 759.284938573581,
            "source": 17,
            "target": 19
        },
        {
            "length": 458.588908811528,
            "source": 17,
            "target": 16
        },
        {
            "length": 1500.0,
            "source": 4,
            "target": 1
        },
        {
            "length": 1446.88092811279,
            "source": 4,
            "target": 2
        },
        {
            "length": 492.602486220218,
            "source": 16,
            "target": 19
        },
        {
            "length": 268.87960244544,
            "source": 5,
            "target": 3
        },
        {
            "length": 839.100175042737,
            "source": 3,
            "target": 2
        },
        {
            "length": 1291.52838129584,
            "source": 2,
            "target": 1
        }
    ]
}