{
    "directed": false,
    "multigraph": false,
    "graph": {},
    "nodes": [
        {
            "latitude": 38.63,
            "longitude": -90.2,
            "location": "St. Louis",
            "country": "United States of America (the)",
            "center_distance": 1.3699210490227447,
            "id": 16
        },
        {
            "latitude": 41.85,
            "longitude": -87.65,
            "location": "Chicago",
            "country": "United States of America (the)",
            "center_distance": 5.003582917658995,
            "id": 3
        },
        {
            "latitude": 39.11,
            "longitude": -94.63,
            "location": "Kansas City",
            "country": "United States of America (the)",
            "center_distance": 5.163891492587951,
            "id": 15
        },
        {
            "latitude": 33.75,
            "longitude": -84.39,
            "location": "Atlanta",
            "country": "United States of America (the)",
            "center_distance": 6.471412160202915,
            "id": 8
        },
        {
            "latitude": 41.66,
            "longitude": -83.56,
            "location": "Toledo",
            "country": "United States of America (the)",
            "center_distance": 7.585596571610051,
            "id": 4
        },
        {
            "latitude": 32.78,
            "longitude": -96.81,
            "location": "Dallas",
            "country": "United States of America (the)",
            "center_distance": 8.367180947839536,
            "id": 23
        },
        {
            "latitude": 32.54,
            "longitude": -82.9,
            "location": "Dublin",
            "country": "United States of America (the)",
            "center_distance": 8.383896787724792,
            "id": 2
        },
        {
            "latitude": 42.33,
            "longitude": -83.05,
            "location": "Detroit",
            "country": "United States of America (the)",
            "center_distance": 8.390995690652902,
            "id": 1
        },
        {
            "latitude": 42.61,
            "longitude": -83.15,
            "location": "Troy",
            "country": "United States of America (the)",
            "center_distance": 8.482530598071671,
            "id": 12
        },
        {
            "latitude": 32.73,
            "longitude": -97.32,
            "location": "Fort Worth",
            "country": "United States of America (the)",
            "center_distance": 8.825684129132549,
            "id": 22
        },
        {
            "latitude": 29.76,
            "longitude": -95.36,
            "location": "Houston",
            "country": "United States of America (the)",
            "center_distance": 9.397243851996649,
            "id": 24
        },
        {
            "latitude": 30.27,
            "longitude": -97.74,
            "location": "Austin",
            "country": "United States of America (the)",
            "center_distance": 10.6327701163536,
            "id": 21
        },
        {
            "latitude": 34.23,
            "longitude": -77.94,
            "location": "Wilmington",
            "country": "United States of America (the)",
            "center_distance": 12.242164855417617,
            "id": 9
        },
        {
            "latitude": 38.97,
            "longitude": -77.39,
            "location": "Herndon",
            "country": "United States of America (the)",
            "center_distance": 12.50332323879891,
            "id": 7
        },
        {
            "latitude": 38.9,
            "longitude": -77.04,
            "location": "Washington, D.C.",
            "country": "United States of America (the)",
            "center_distance": 12.84158642901603,
            "id": 5
        },
        {
            "latitude": 39.29,
            "longitude": -76.61,
            "location": "Baltimore",
            "country": "United States of America (the)",
            "center_distance": 13.320379449571078,
            "id": 6
        },
        {
            "latitude": 39.95,
            "longitude": -75.16,
            "location": "Philadelphia",
            "country": "United States of America (the)",
            "center_distance": 14.858373072016407,
            "id": 10
        },
        {
            "latitude": 40.74,
            "longitude": -74.17,
            "location": "Newark",
            "country": "United States of America (the)",
            "center_distance": 15.983750613687498,
            "id": 14
        },
        {
            "latitude": 40.71,
            "longitude": -74.01,
            "location": "New York City",
            "country": "United States of America (the)",
            "center_distance": 16.133769719046505,
            "id": 13
        },
        {
            "latitude": 42.36,
            "longitude": -71.06,
            "location": "Boston",
            "country": "United States of America (the)",
            "center_distance": 19.389828313161743,
            "id": 11
        },
        {
            "latitude": 33.45,
            "longitude": -112.07,
            "location": "Phoenix",
            "country": "United States of America (the)",
            "center_distance": 22.619730149006834,
            "id": 20
        },
        {
            "latitude": 34.05,
            "longitude": -118.24,
            "location": "Los Angeles",
            "country": "United States of America (the)",
            "center_distance": 28.643212698308748,
            "id": 19
        },
        {
            "latitude": 37.35,
            "longitude": -121.96,
            "location": "Santa Clara",
            "country": "United States of America (the)",
            "center_distance": 32.17542670549305,
            "id": 18
        },
        {
            "latitude": 37.77,
            "longitude": -122.42,
            "location": "San Francisco",
            "country": "United States of America (the)",
            "center_distance": 32.63845610646878,
            "id": 17
        }
    ],
    "links": [
        {
            "length": 627.5025611615271,
            "source": 16,
            "target": 3
        },
        {
            "length": 580.7625411994072,
            "source": 16,
            "target": 15
        },
        {
            "length": 1500.0,
            "source": 3,
            "target": 2
        },
        {
            "length": 509.8435626304135,
            "source": 3,
            "target": 4
        },
        {
            "length": 2102.128051806963,
            "source": 15,
            "target": 20
        },
        {
            "length": 1095.95956804919,
            "source": 15,
            "target": 23
        },
        {
            "length": 1280.659967318184,
            "source": 8,
            "target": 7
        },
        {
            "length": 1500.0,
            "source": 8,
            "target": 24
        },
        {
            "length": 128.3933603139128,
            "source": 4,
            "target": 1
        },
        {
            "length": 1500.0,
            "source": 4,
            "target": 2
        },
        {
            "length": 72.02261095132675,
            "source": 23,
            "target": 22
        },
        {
            "length": 544.4600499700148,
            "source": 23,
            "target": 24
        },
        {
            "length": 1324.067201764712,
            "source": 2,
            "target": 5
        },
        {
            "length": 1181.526912522182,
            "source": 12,
            "target": 13
        },
        {
            "length": 354.0915074929874,
            "source": 24,
            "target": 21
        },
        {
            "length": 862.4466435705526,
            "source": 9,
            "target": 6
        },
        {
            "length": 1023.08605411639,
            "source": 9,
            "target": 10
        },
        {
            "length": 521.0951719218651,
            "source": 7,
            "target": 13
        },
        {
            "length": 85.61340860642284,
            "source": 5,
            "target": 6
        },
        {
            "length": 182.2082908548479,
            "source": 10,
            "target": 14
        },
        {
            "length": 20.83436718327859,
            "source": 14,
            "target": 13
        },
        {
            "length": 459.728758316418,
            "source": 13,
            "target": 11
        },
        {
            "length": 861.3692628497527,
            "source": 20,
            "target": 19
        },
        {
            "length": 838.7553033988663,
            "source": 19,
            "target": 17
        },
        {
            "length": 92.77121696685674,
            "source": 18,
            "target": 17
        }
    ]
}