{
    "directed": false,
    "multigraph": false,
    "graph": {},
    "nodes": [
        {
            "latitude": 50.0874654,
            "longitude": 14.4212535,
            "location": "Prague",
            "country": "Czechia",
            "center_distance": 0.7406607677393434,
            "id": 22
        },
        {
            "latitude": 48.2083537,
            "longitude": 16.3725042,
            "location": "Vienna",
            "country": "Austria",
            "center_distance": 2.4779342606694095,
            "id": 19
        },
        {
            "latitude": 48.1516988,
            "longitude": 17.1093063,
            "location": "Bratislava",
            "country": "Slovakia",
            "center_distance": 3.16767102338152,
            "id": 20
        },
        {
            "latitude": 52.5170365,
            "longitude": 13.3888599,
            "location": "Berlin",
            "country": "Germany",
            "center_distance": 3.2345476639158215,
            "id": 23
        },
        {
            "latitude": 46.0500268,
            "longitude": 14.5069289,
            "location": "Ljubljana",
            "country": "Slovenia",
            "center_distance": 3.348432676500134,
            "id": 21
        },
        {
            "latitude": 45.8130967,
            "longitude": 15.9772795,
            "location": "Zagreb",
            "country": "Croatia",
            "center_distance": 3.992349583240054,
            "id": 18
        },
        {
            "latitude": 47.4978789,
            "longitude": 19.0402383,
            "location": "Budapest",
            "country": "Hungary",
            "center_distance": 5.202995437239421,
            "id": 17
        },
        {
            "latitude": 55.6867243,
            "longitude": 12.5700724,
            "location": "Copenhagen",
            "country": "Denmark",
            "center_distance": 6.508277640259537,
            "id": 24
        },
        {
            "latitude": 46.9484742,
            "longitude": 7.4521749,
            "location": "Bern",
            "country": "Switzerland",
            "center_distance": 7.1652372906736845,
            "id": 9
        },
        {
            "latitude": 52.2337172,
            "longitude": 21.07143223563649,
            "location": "Warsaw",
            "country": "Poland",
            "center_distance": 7.44745406061444,
            "id": 32
        },
        {
            "latitude": 41.8933203,
            "longitude": 12.4829321,
            "location": "Rome",
            "country": "Italy",
            "center_distance": 7.682474262778759,
            "id": 10
        },
        {
            "latitude": 49.6112768,
            "longitude": 6.129799,
            "location": "Luxembourg",
            "country": "Luxembourg",
            "center_distance": 8.064375124524455,
            "id": 8
        },
        {
            "latitude": 52.3730796,
            "longitude": 4.8924534,
            "location": "Amsterdam",
            "country": "Netherlands",
            "center_distance": 9.7672745610027,
            "id": 7
        },
        {
            "latitude": 50.8465573,
            "longitude": 4.351697,
            "location": "Brussels",
            "country": "Belgium",
            "center_distance": 9.947438165315129,
            "id": 6
        },
        {
            "latitude": 59.3251172,
            "longitude": 18.0710935,
            "location": "Stockholm",
            "country": "Sweden",
            "center_distance": 10.671965749361453,
            "id": 26
        },
        {
            "latitude": 59.9133301,
            "longitude": 10.7389701,
            "location": "Oslo",
            "country": "Norway",
            "center_distance": 11.081207467181734,
            "id": 25
        },
        {
            "latitude": 42.96,
            "longitude": 23.25,
            "location": "Sofia",
            "country": "Madagascar",
            "center_distance": 11.105306785445048,
            "id": 15
        },
        {
            "latitude": 48.8588897,
            "longitude": 2.320041021720077,
            "location": "Paris",
            "country": "France",
            "center_distance": 11.882503377025389,
            "id": 3
        },
        {
            "latitude": 60.102423,
            "longitude": 19.94126,
            "location": "Mariehamn",
            "country": "Finland",
            "center_distance": 12.16391825150029,
            "id": 35
        },
        {
            "latitude": 54.6870458,
            "longitude": 25.2829111,
            "location": "Vilnius",
            "country": "Lithuania",
            "center_distance": 12.294667468708681,
            "id": 29
        },
        {
            "latitude": 56.9493977,
            "longitude": 24.1051846,
            "location": "Riga",
            "country": "Latvia",
            "center_distance": 12.471344777794124,
            "id": 31
        },
        {
            "latitude": 44.4361414,
            "longitude": 26.1027202,
            "location": "Bucharest",
            "country": "Romania",
            "center_distance": 12.898318951652396,
            "id": 16
        },
        {
            "latitude": 35.8989818,
            "longitude": 14.5136759,
            "location": "Valetta",
            "country": "Malta",
            "center_distance": 13.488397336647516,
            "id": 11
        },
        {
            "latitude": 51.5074456,
            "longitude": -0.1277653,
            "location": "London",
            "country": "United Kingdom",
            "center_distance": 14.475388893258197,
            "id": 4
        },
        {
            "latitude": 59.4372155,
            "longitude": 24.7453688,
            "location": "Tallinn",
            "country": "Estonia",
            "center_distance": 14.576434331051402,
            "id": 28
        },
        {
            "latitude": 37.98,
            "longitude": 23.72,
            "location": "Athens",
            "country": "United States",
            "center_distance": 14.86078321801753,
            "id": 12
        },
        {
            "latitude": 60.1674881,
            "longitude": 24.9427473,
            "location": "Helsinki",
            "country": "Finland",
            "center_distance": 15.228099083123485,
            "id": 27
        },
        {
            "latitude": 53.4794892,
            "longitude": -2.2451148,
            "location": "Manchester",
            "country": "United Kingdom",
            "center_distance": 16.93875568920252,
            "id": 33
        },
        {
            "latitude": 51.4816546,
            "longitude": -3.1791934,
            "location": "Cardiff",
            "country": "United Kingdom",
            "center_distance": 17.496408499676416,
            "id": 34
        },
        {
            "latitude": 40.4167047,
            "longitude": -3.7035825,
            "location": "Madrid",
            "country": "Spain",
            "center_distance": 20.015451337574138,
            "id": 2
        },
        {
            "latitude": 53.3493795,
            "longitude": -6.2605593,
            "location": "Dublin",
            "country": "Ireland",
            "center_distance": 20.832488720252307,
            "id": 5
        },
        {
            "latitude": 39.9207759,
            "longitude": 32.8540497,
            "location": "Ankara",
            "country": "Turkey",
            "center_distance": 20.924973301519383,
            "id": 14
        },
        {
            "latitude": 35.1746503,
            "longitude": 33.3638783,
            "location": "Nicosia",
            "country": "Northern Cyprus",
            "center_distance": 23.86404874150719,
            "id": 13
        },
        {
            "latitude": 55.7505412,
            "longitude": 37.6174782,
            "location": "Moscow",
            "country": "Russia",
            "center_distance": 24.27634382663953,
            "id": 30
        },
        {
            "latitude": 38.7077507,
            "longitude": -9.1365919,
            "location": "Lisbon",
            "country": "Portugal",
            "center_distance": 25.654367173726072,
            "id": 1
        }
    ],
    "links": [
        {
            "length": 436.23,
            "source": 22,
            "target": 20
        },
        {
            "length": 781.92,
            "source": 22,
            "target": 32
        },
        {
            "length": 419.28,
            "source": 22,
            "target": 23
        },
        {
            "length": 1148.31,
            "source": 19,
            "target": 10
        },
        {
            "length": 1603.0,
            "source": 19,
            "target": 12
        },
        {
            "length": 417.6,
            "source": 19,
            "target": 21
        },
        {
            "length": 785.4749999999999,
            "source": 19,
            "target": 23
        },
        {
            "length": 82.485,
            "source": 19,
            "target": 20
        },
        {
            "length": 242.16,
            "source": 20,
            "target": 17
        },
        {
            "length": 863.61,
            "source": 23,
            "target": 7
        },
        {
            "length": 901.5,
            "source": 23,
            "target": 8
        },
        {
            "length": 1127.115,
            "source": 23,
            "target": 9
        },
        {
            "length": 783.33,
            "source": 23,
            "target": 32
        },
        {
            "length": 534.705,
            "source": 23,
            "target": 24
        },
        {
            "length": 2012.4375,
            "source": 23,
            "target": 30
        },
        {
            "length": 175.08,
            "source": 21,
            "target": 18
        },
        {
            "length": 449.3100000000001,
            "source": 18,
            "target": 17
        },
        {
            "length": 903.75,
            "source": 17,
            "target": 15
        },
        {
            "length": 964.395,
            "source": 17,
            "target": 16
        },
        {
            "length": 932.52,
            "source": 24,
            "target": 7
        },
        {
            "length": 1253.43,
            "source": 24,
            "target": 28
        },
        {
            "length": 1950.25,
            "source": 24,
            "target": 30
        },
        {
            "length": 781.29,
            "source": 24,
            "target": 26
        },
        {
            "length": 723.4350000000001,
            "source": 24,
            "target": 25
        },
        {
            "length": 656.175,
            "source": 9,
            "target": 3
        },
        {
            "length": 1500.0,
            "source": 9,
            "target": 2
        },
        {
            "length": 1033.95,
            "source": 9,
            "target": 10
        },
        {
            "length": 584.91,
            "source": 32,
            "target": 29
        },
        {
            "length": 1703.7625,
            "source": 10,
            "target": 2
        },
        {
            "length": 1576.5,
            "source": 10,
            "target": 12
        },
        {
            "length": 2446.825,
            "source": 10,
            "target": 13
        },
        {
            "length": 1033.89,
            "source": 10,
            "target": 11
        },
        {
            "length": 433.425,
            "source": 8,
            "target": 3
        },
        {
            "length": 260.7,
            "source": 7,
            "target": 6
        },
        {
            "length": 2477.675,
            "source": 7,
            "target": 11
        },
        {
            "length": 481.11,
            "source": 6,
            "target": 4
        },
        {
            "length": 625.89,
            "source": 26,
            "target": 25
        },
        {
            "length": 203.835,
            "source": 26,
            "target": 35
        },
        {
            "length": 594.0,
            "source": 26,
            "target": 27
        },
        {
            "length": 828.0,
            "source": 15,
            "target": 12
        },
        {
            "length": 1302.0,
            "source": 15,
            "target": 14
        },
        {
            "length": 423.0,
            "source": 15,
            "target": 16
        },
        {
            "length": 513.255,
            "source": 3,
            "target": 4
        },
        {
            "length": 1500.0,
            "source": 3,
            "target": 2
        },
        {
            "length": 415.4399999999999,
            "source": 35,
            "target": 27
        },
        {
            "length": 393.135,
            "source": 29,
            "target": 31
        },
        {
            "length": 418.74,
            "source": 31,
            "target": 28
        },
        {
            "length": 1123.365,
            "source": 16,
            "target": 14
        },
        {
            "length": 1982.9875,
            "source": 4,
            "target": 1
        },
        {
            "length": 392.925,
            "source": 4,
            "target": 33
        },
        {
            "length": 316.875,
            "source": 4,
            "target": 34
        },
        {
            "length": 1372.5,
            "source": 12,
            "target": 13
        },
        {
            "length": 399.72,
            "source": 33,
            "target": 5
        },
        {
            "length": 441.87,
            "source": 34,
            "target": 5
        },
        {
            "length": 754.3499999999999,
            "source": 2,
            "target": 1
        }
    ]
}