{
    "directed": false,
    "multigraph": false,
    "graph": {},
    "nodes": [
        {
            "latitude": 48.85,
            "longitude": 2.35,
            "location": "Paris",
            "country": "France",
            "center_distance": 2.1178233060280416,
            "id": 13
        },
        {
            "latitude": 48.08,
            "longitude": -1.68,
            "location": "Rennes",
            "country": "France",
            "center_distance": 2.8135390920017813,
            "id": 14
        },
        {
            "latitude": 51.51,
            "longitude": -0.13,
            "location": "London",
            "country": "United Kingdom of Great Britain and Northern Ireland (the)",
            "center_distance": 4.4366326069316155,
            "id": 15
        },
        {
            "latitude": 41.39,
            "longitude": 2.16,
            "location": "Barcelona",
            "country": "Spain",
            "center_distance": 5.943889486037091,
            "id": 5
        },
        {
            "latitude": 53.08,
            "longitude": -0.14,
            "location": "Coningsby",
            "country": "United Kingdom of Great Britain and Northern Ireland (the)",
            "center_distance": 5.9702575786606955,
            "id": 7
        },
        {
            "latitude": 51.44,
            "longitude": 5.48,
            "location": "Eindhoven",
            "country": "Netherlands (Kingdom of the)",
            "center_distance": 6.156003212763578,
            "id": 9
        },
        {
            "latitude": 52.37,
            "longitude": 4.89,
            "location": "Amsterdam",
            "country": "Netherlands (Kingdom of the)",
            "center_distance": 6.455373128040093,
            "id": 8
        },
        {
            "latitude": 53.48,
            "longitude": -2.24,
            "location": "Manchester",
            "country": "United Kingdom of Great Britain and Northern Ireland (the)",
            "center_distance": 7.048752293057885,
            "id": 6
        },
        {
            "latitude": 50.12,
            "longitude": 8.68,
            "location": "Frankfurt am Main",
            "country": "Germany",
            "center_distance": 8.210770298144311,
            "id": 11
        },
        {
            "latitude": 40.42,
            "longitude": -3.7,
            "location": "City Center",
            "country": "Spain",
            "center_distance": 8.264889728376433,
            "id": 2
        },
        {
            "latitude": 48.14,
            "longitude": 11.58,
            "location": "Munich",
            "country": "Germany",
            "center_distance": 10.621310758198454,
            "id": 12
        },
        {
            "latitude": 41.15,
            "longitude": -8.62,
            "location": "Porto",
            "country": "Portugal",
            "center_distance": 11.373458381493098,
            "id": 3
        },
        {
            "latitude": 38.72,
            "longitude": -9.13,
            "location": "Lisbon",
            "country": "Portugal",
            "center_distance": 13.222274976552095,
            "id": 4
        },
        {
            "latitude": 52.52,
            "longitude": 13.41,
            "location": "Berlin",
            "country": "Germany",
            "center_distance": 13.495860929270952,
            "id": 10
        },
        {
            "latitude": 37.02,
            "longitude": -7.93,
            "location": "Faro",
            "country": "Portugal",
            "center_distance": 13.555349087680808,
            "id": 1
        }
    ],
    "links": [
        {
            "length": 1244.471006894535,
            "source": 13,
            "target": 5
        },
        {
            "length": 717.5980194901786,
            "source": 13,
            "target": 11
        },
        {
            "length": 463.7727051434647,
            "source": 13,
            "target": 14
        },
        {
            "length": 516.656454570689,
            "source": 13,
            "target": 15
        },
        {
            "length": 1981.348079362193,
            "source": 15,
            "target": 4
        },
        {
            "length": 392.2307757921959,
            "source": 15,
            "target": 6
        },
        {
            "length": 261.8660383917509,
            "source": 15,
            "target": 7
        },
        {
            "length": 535.6163051270169,
            "source": 15,
            "target": 8
        },
        {
            "length": 956.285408716683,
            "source": 15,
            "target": 11
        },
        {
            "length": 756.0643238408899,
            "source": 5,
            "target": 2
        },
        {
            "length": 166.5742427087172,
            "source": 9,
            "target": 8
        },
        {
            "length": 545.2339470871901,
            "source": 8,
            "target": 11
        },
        {
            "length": 634.8701531428853,
            "source": 11,
            "target": 10
        },
        {
            "length": 457.3596175321572,
            "source": 11,
            "target": 12
        },
        {
            "length": 753.3558347662502,
            "source": 2,
            "target": 4
        },
        {
            "length": 756.0218233393591,
            "source": 12,
            "target": 10
        },
        {
            "length": 410.517782476493,
            "source": 3,
            "target": 4
        },
        {
            "length": 324.5882130963141,
            "source": 4,
            "target": 1
        }
    ]
}