{
    "directed": false,
    "multigraph": false,
    "graph": {},
    "nodes": [
        {
            "latitude": 35.03,
            "longitude": 135.85,
            "location": "Otsu",
            "country": "Japan",
            "center_distance": 0.4432208254209322,
            "id": 26
        },
        {
            "latitude": 35.018,
            "longitude": 135.76,
            "location": "Kyoto",
            "country": "Japan",
            "center_distance": 0.5085692677372646,
            "id": 27
        },
        {
            "latitude": 35.45,
            "longitude": 136.76,
            "location": "Gifu",
            "country": "Japan",
            "center_distance": 0.6612271672832646,
            "id": 22
        },
        {
            "latitude": 36.07,
            "longitude": 136.22,
            "location": "Fukui",
            "country": "Japan",
            "center_distance": 0.6851354124697797,
            "id": 19
        },
        {
            "latitude": 34.67,
            "longitude": 135.89,
            "location": "Nara",
            "country": "Japan",
            "center_distance": 0.7553518165421202,
            "id": 30
        },
        {
            "latitude": 34.73,
            "longitude": 136.509,
            "location": "Tsu",
            "country": "Japan",
            "center_distance": 0.7803943127804863,
            "id": 25
        },
        {
            "latitude": 35.149,
            "longitude": 136.91,
            "location": "Nagoya",
            "country": "Japan",
            "center_distance": 0.845613923974837,
            "id": 24
        },
        {
            "latitude": 34.67,
            "longitude": 135.5,
            "location": "Osaka",
            "country": "Japan",
            "center_distance": 0.941949503292762,
            "id": 28
        },
        {
            "latitude": 34.69,
            "longitude": 135.18,
            "location": "Kobe",
            "country": "Japan",
            "center_distance": 1.1600537487921894,
            "id": 29
        },
        {
            "latitude": 36.58,
            "longitude": 136.65,
            "location": "Kanazawa",
            "country": "Japan",
            "center_distance": 1.305732916827479,
            "id": 18
        },
        {
            "latitude": 34.25,
            "longitude": 135.18,
            "location": "Wakayama",
            "country": "Japan",
            "center_distance": 1.4696812693302392,
            "id": 31
        },
        {
            "latitude": 36.71,
            "longitude": 137.209,
            "location": "Toyama",
            "country": "Japan",
            "center_distance": 1.7193267432593475,
            "id": 17
        },
        {
            "latitude": 35.51,
            "longitude": 134.22,
            "location": "Tottori",
            "country": "Japan",
            "center_distance": 1.8845372199614872,
            "id": 32
        },
        {
            "latitude": 34.05,
            "longitude": 134.52,
            "location": "Tokushima",
            "country": "Japan",
            "center_distance": 2.075920607044854,
            "id": 37
        },
        {
            "latitude": 34.66,
            "longitude": 133.92,
            "location": "Okayama",
            "country": "Japan",
            "center_distance": 2.3016441840751365,
            "id": 34
        },
        {
            "latitude": 34.34,
            "longitude": 134.05,
            "location": "Takamatsu",
            "country": "Japan",
            "center_distance": 2.306592389237159,
            "id": 38
        },
        {
            "latitude": 35.013,
            "longitude": 138.4,
            "location": "Shizuoka",
            "country": "Japan",
            "center_distance": 2.330523633954424,
            "id": 23
        },
        {
            "latitude": 36.66,
            "longitude": 138.19,
            "location": "Nagano",
            "country": "Japan",
            "center_distance": 2.441984189838273,
            "id": 21
        },
        {
            "latitude": 35.67,
            "longitude": 138.56,
            "location": "Kofu",
            "country": "Japan",
            "center_distance": 2.474257908967208,
            "id": 20
        },
        {
            "latitude": 35.48,
            "longitude": 133.05,
            "location": "Matsue",
            "country": "Japan",
            "center_distance": 3.0522179285595112,
            "id": 33
        },
        {
            "latitude": 36.4,
            "longitude": 139.06,
            "location": "Maebashi",
            "country": "Japan",
            "center_distance": 3.12488641661636,
            "id": 10
        },
        {
            "latitude": 33.58,
            "longitude": 133.53,
            "location": "Kochi",
            "country": "Japan",
            "center_distance": 3.1472946239726034,
            "id": 40
        },
        {
            "latitude": 35.66,
            "longitude": 139.28,
            "location": "Hachioji",
            "country": "Japan",
            "center_distance": 3.1899620086692924,
            "id": 14
        },
        {
            "latitude": 35.458,
            "longitude": 139.64,
            "location": "Yokohama",
            "country": "Japan",
            "center_distance": 3.539514236928563,
            "id": 15
        },
        {
            "latitude": 35.9,
            "longitude": 139.63,
            "location": "Omiya",
            "country": "Japan",
            "center_distance": 3.5648700467319587,
            "id": 11
        },
        {
            "latitude": 35.68,
            "longitude": 139.77,
            "location": "Tokyo",
            "country": "Japan",
            "center_distance": 3.6799899388567385,
            "id": 13
        },
        {
            "latitude": 33.84,
            "longitude": 132.75,
            "location": "Matsuyama",
            "country": "Japan",
            "center_distance": 3.6943670116480734,
            "id": 39
        },
        {
            "latitude": 34.39,
            "longitude": 132.449,
            "location": "Hiroshima",
            "country": "Japan",
            "center_distance": 3.7878724613455645,
            "id": 35
        },
        {
            "latitude": 37.92,
            "longitude": 139.05,
            "location": "Niigata",
            "country": "Japan",
            "center_distance": 3.882088692540846,
            "id": 16
        },
        {
            "latitude": 36.57,
            "longitude": 139.88,
            "location": "Utsunomiya",
            "country": "Japan",
            "center_distance": 3.957336819135656,
            "id": 9
        },
        {
            "latitude": 35.6,
            "longitude": 140.16,
            "location": "Chiba",
            "country": "Japan",
            "center_distance": 4.064118204902516,
            "id": 12
        },
        {
            "latitude": 36.37,
            "longitude": 140.47,
            "location": "Mito",
            "country": "Japan",
            "center_distance": 4.4763706132036685,
            "id": 8
        },
        {
            "latitude": 34.23,
            "longitude": 131.45,
            "location": "Yamaguchi",
            "country": "Japan",
            "center_distance": 4.7947934992121395,
            "id": 36
        },
        {
            "latitude": 37.77,
            "longitude": 140.46,
            "location": "Fukushima",
            "country": "Japan",
            "center_distance": 4.9638549905042035,
            "id": 7
        },
        {
            "latitude": 33.25,
            "longitude": 131.6,
            "location": "Oita",
            "country": "Japan",
            "center_distance": 4.986137085301634,
            "id": 45
        },
        {
            "latitude": 38.26,
            "longitude": 140.34,
            "location": "Yamagata",
            "country": "Japan",
            "center_distance": 5.116193990662078,
            "id": 6
        },
        {
            "latitude": 38.27,
            "longitude": 140.85,
            "location": "Sendai",
            "country": "Japan",
            "center_distance": 5.551276703013463,
            "id": 4
        },
        {
            "latitude": 31.91,
            "longitude": 131.42,
            "location": "Miyazaki",
            "country": "Japan",
            "center_distance": 5.836031516943142,
            "id": 46
        },
        {
            "latitude": 39.72,
            "longitude": 140.09,
            "location": "Akita",
            "country": "Japan",
            "center_distance": 5.883457397660558,
            "id": 5
        },
        {
            "latitude": 32.81,
            "longitude": 130.7,
            "location": "Kumamoto",
            "country": "Japan",
            "center_distance": 5.987894151265007,
            "id": 44
        },
        {
            "latitude": 33.57,
            "longitude": 130.35,
            "location": "Hakata",
            "country": "Japan",
            "center_distance": 6.033746254753645,
            "id": 41
        },
        {
            "latitude": 33.26,
            "longitude": 130.055,
            "location": "Saga",
            "country": "Japan",
            "center_distance": 6.412020069116557,
            "id": 42
        },
        {
            "latitude": 39.7,
            "longitude": 141.149,
            "location": "Morioka",
            "country": "Japan",
            "center_distance": 6.634197504854682,
            "id": 3
        },
        {
            "latitude": 31.6,
            "longitude": 130.559,
            "location": "Kagoshima",
            "country": "Japan",
            "center_distance": 6.717016192731729,
            "id": 47
        },
        {
            "latitude": 32.75,
            "longitude": 129.88,
            "location": "Nagasaki",
            "country": "Japan",
            "center_distance": 6.760090028992733,
            "id": 43
        },
        {
            "latitude": 40.82,
            "longitude": 140.73,
            "location": "Aomori",
            "country": "Japan",
            "center_distance": 7.131265089969658,
            "id": 2
        },
        {
            "latitude": 43.075,
            "longitude": 141.34,
            "location": "Sapporo",
            "country": "Japan",
            "center_distance": 9.296500658406552,
            "id": 1
        },
        {
            "latitude": 26.21,
            "longitude": 127.68,
            "location": "Naha",
            "country": "Japan",
            "center_distance": 12.461265707520251,
            "id": 48
        }
    ],
    "links": [
        {
            "length": 160.95,
            "source": 26,
            "target": 22
        },
        {
            "length": 126.6,
            "source": 26,
            "target": 25
        },
        {
            "length": 15.0,
            "source": 26,
            "target": 27
        },
        {
            "length": 222.15,
            "source": 27,
            "target": 19
        },
        {
            "length": 62.55,
            "source": 27,
            "target": 30
        },
        {
            "length": 58.5,
            "source": 27,
            "target": 28
        },
        {
            "length": 380.25,
            "source": 27,
            "target": 32
        },
        {
            "length": 116.1,
            "source": 27,
            "target": 29
        },
        {
            "length": 45.45,
            "source": 22,
            "target": 24
        },
        {
            "length": 115.05,
            "source": 19,
            "target": 18
        },
        {
            "length": 134.25,
            "source": 30,
            "target": 25
        },
        {
            "length": 78.0,
            "source": 30,
            "target": 28
        },
        {
            "length": 99.75,
            "source": 25,
            "target": 24
        },
        {
            "length": 548.0999999999999,
            "source": 25,
            "target": 31
        },
        {
            "length": 376.2,
            "source": 24,
            "target": 21
        },
        {
            "length": 394.2,
            "source": 24,
            "target": 20
        },
        {
            "length": 278.7,
            "source": 24,
            "target": 23
        },
        {
            "length": 55.34999999999999,
            "source": 28,
            "target": 29
        },
        {
            "length": 114.15,
            "source": 28,
            "target": 31
        },
        {
            "length": 215.1,
            "source": 29,
            "target": 34
        },
        {
            "length": 89.1,
            "source": 18,
            "target": 17
        },
        {
            "length": 98.69999999999999,
            "source": 31,
            "target": 37
        },
        {
            "length": 381.15,
            "source": 17,
            "target": 16
        },
        {
            "length": 289.2,
            "source": 17,
            "target": 21
        },
        {
            "length": 212.7,
            "source": 32,
            "target": 34
        },
        {
            "length": 182.4,
            "source": 32,
            "target": 33
        },
        {
            "length": 111.75,
            "source": 37,
            "target": 38
        },
        {
            "length": 235.05,
            "source": 37,
            "target": 40
        },
        {
            "length": 107.7,
            "source": 34,
            "target": 38
        },
        {
            "length": 241.95,
            "source": 34,
            "target": 35
        },
        {
            "length": 238.95,
            "source": 38,
            "target": 40
        },
        {
            "length": 291.6,
            "source": 38,
            "target": 39
        },
        {
            "length": 227.1,
            "source": 23,
            "target": 15
        },
        {
            "length": 183.6,
            "source": 23,
            "target": 20
        },
        {
            "length": 176.1,
            "source": 21,
            "target": 10
        },
        {
            "length": 316.95,
            "source": 21,
            "target": 16
        },
        {
            "length": 246.0,
            "source": 21,
            "target": 20
        },
        {
            "length": 130.05,
            "source": 20,
            "target": 14
        },
        {
            "length": 384.75,
            "source": 33,
            "target": 36
        },
        {
            "length": 159.75,
            "source": 10,
            "target": 9
        },
        {
            "length": 112.05,
            "source": 10,
            "target": 11
        },
        {
            "length": 144.6,
            "source": 10,
            "target": 14
        },
        {
            "length": 343.35,
            "source": 10,
            "target": 16
        },
        {
            "length": 376.8,
            "source": 40,
            "target": 39
        },
        {
            "length": 71.1,
            "source": 14,
            "target": 13
        },
        {
            "length": 54.75,
            "source": 14,
            "target": 15
        },
        {
            "length": 43.2,
            "source": 15,
            "target": 13
        },
        {
            "length": 175.5,
            "source": 11,
            "target": 8
        },
        {
            "length": 118.8,
            "source": 11,
            "target": 9
        },
        {
            "length": 99.14999999999999,
            "source": 11,
            "target": 12
        },
        {
            "length": 45.45,
            "source": 11,
            "target": 13
        },
        {
            "length": 58.8,
            "source": 13,
            "target": 12
        },
        {
            "length": 99.30000000000001,
            "source": 39,
            "target": 35
        },
        {
            "length": 249.75,
            "source": 39,
            "target": 45
        },
        {
            "length": 199.2,
            "source": 35,
            "target": 36
        },
        {
            "length": 409.5,
            "source": 16,
            "target": 5
        },
        {
            "length": 280.5,
            "source": 16,
            "target": 6
        },
        {
            "length": 270.15,
            "source": 16,
            "target": 7
        },
        {
            "length": 244.95,
            "source": 9,
            "target": 7
        },
        {
            "length": 143.4,
            "source": 9,
            "target": 8
        },
        {
            "length": 191.25,
            "source": 12,
            "target": 8
        },
        {
            "length": 368.1,
            "source": 8,
            "target": 4
        },
        {
            "length": 221.85,
            "source": 36,
            "target": 41
        },
        {
            "length": 118.5,
            "source": 7,
            "target": 4
        },
        {
            "length": 297.75,
            "source": 45,
            "target": 41
        },
        {
            "length": 222.0,
            "source": 45,
            "target": 44
        },
        {
            "length": 310.5,
            "source": 45,
            "target": 46
        },
        {
            "length": 317.4,
            "source": 6,
            "target": 5
        },
        {
            "length": 91.65,
            "source": 6,
            "target": 4
        },
        {
            "length": 275.25,
            "source": 4,
            "target": 3
        },
        {
            "length": 188.85,
            "source": 46,
            "target": 47
        },
        {
            "length": 272.85,
            "source": 5,
            "target": 2
        },
        {
            "length": 190.95,
            "source": 5,
            "target": 3
        },
        {
            "length": 177.6,
            "source": 44,
            "target": 41
        },
        {
            "length": 255.75,
            "source": 44,
            "target": 47
        },
        {
            "length": 80.4,
            "source": 41,
            "target": 42
        },
        {
            "length": 150.45,
            "source": 42,
            "target": 43
        },
        {
            "length": 614.7,
            "source": 3,
            "target": 1
        },
        {
            "length": 267.6,
            "source": 3,
            "target": 2
        },
        {
            "length": 1010.55,
            "source": 47,
            "target": 48
        },
        {
            "length": 1137.0,
            "source": 43,
            "target": 48
        },
        {
            "length": 714.3,
            "source": 2,
            "target": 1
        }
    ]
}