{
    "directed": false,
    "multigraph": false,
    "graph": {},
    "nodes": [
        {
            "latitude": 34.72,
            "longitude": -92.35,
            "location": "Little Rock",
            "country": "United States of America (the)",
            "center_distance": 2.6948982767856413,
            "id": 25
        },
        {
            "latitude": 39.12,
            "longitude": -94.73,
            "location": "Shawnee",
            "country": "United States of America (the)",
            "center_distance": 2.7003339402542044,
            "id": 23
        },
        {
            "latitude": 38.64,
            "longitude": -90.24,
            "location": "St. Louis",
            "country": "United States of America (the)",
            "center_distance": 2.7109863006334796,
            "id": 52
        },
        {
            "latitude": 36.13,
            "longitude": -95.92,
            "location": "Tulsa",
            "country": "United States of America (the)",
            "center_distance": 3.5074544504842864,
            "id": 58
        },
        {
            "latitude": 41.26,
            "longitude": -96.01,
            "location": "Ralston",
            "country": "United States of America (the)",
            "center_distance": 5.119030838178462,
            "id": 36
        },
        {
            "latitude": 36.17,
            "longitude": -86.78,
            "location": "Nashville",
            "country": "United States of America (the)",
            "center_distance": 5.996943948564346,
            "id": 31
        },
        {
            "latitude": 32.79,
            "longitude": -96.77,
            "location": "Dallas",
            "country": "United States of America (the)",
            "center_distance": 6.181502518715702,
            "id": 15
        },
        {
            "latitude": 41.84,
            "longitude": -87.68,
            "location": "Chicago",
            "country": "United States of America (the)",
            "center_distance": 6.665517738497327,
            "id": 11
        },
        {
            "latitude": 38.22,
            "longitude": -85.74,
            "location": "Audubon Park",
            "country": "United States of America (the)",
            "center_distance": 6.958534811454398,
            "id": 27
        },
        {
            "latitude": 33.53,
            "longitude": -86.8,
            "location": "Birmingham",
            "country": "United States of America (the)",
            "center_distance": 7.013078025295968,
            "id": 7
        },
        {
            "latitude": 30.45,
            "longitude": -91.13,
            "location": "Baton Rouge",
            "country": "United States of America (the)",
            "center_distance": 7.112447777586063,
            "id": 5
        },
        {
            "latitude": 43.06,
            "longitude": -87.97,
            "location": "Wauwatosa",
            "country": "United States of America (the)",
            "center_distance": 7.345556256827837,
            "id": 29
        },
        {
            "latitude": 44.96,
            "longitude": -93.27,
            "location": "Minneapolis",
            "country": "United States of America (the)",
            "center_distance": 7.587221497726003,
            "id": 30
        },
        {
            "latitude": 30.07,
            "longitude": -89.93,
            "location": "Chalmette",
            "country": "United States of America (the)",
            "center_distance": 7.816618198143977,
            "id": 32
        },
        {
            "latitude": 29.77,
            "longitude": -95.39,
            "location": "Houston",
            "country": "United States of America (the)",
            "center_distance": 8.105395737134328,
            "id": 21
        },
        {
            "latitude": 39.14,
            "longitude": -84.51,
            "location": "Saint Bernard",
            "country": "United States of America (the)",
            "center_distance": 8.324113769979117,
            "id": 12
        },
        {
            "latitude": 33.76,
            "longitude": -84.42,
            "location": "Atlanta",
            "country": "United States of America (the)",
            "center_distance": 8.998133883694402,
            "id": 3
        },
        {
            "latitude": 29.46,
            "longitude": -98.51,
            "location": "Olmos Park",
            "country": "United States of America (the)",
            "center_distance": 9.866916610009863,
            "id": 45
        },
        {
            "latitude": 39.99,
            "longitude": -82.99,
            "location": "Columbus",
            "country": "United States of America (the)",
            "center_distance": 10.001498890444184,
            "id": 14
        },
        {
            "latitude": 41.66,
            "longitude": -83.58,
            "location": "Toledo",
            "country": "United States of America (the)",
            "center_distance": 10.021232461905877,
            "id": 56
        },
        {
            "latitude": 42.38,
            "longitude": -83.1,
            "location": "Highland Park",
            "country": "United States of America (the)",
            "center_distance": 10.77116428505091,
            "id": 17
        },
        {
            "latitude": 30.46,
            "longitude": -84.28,
            "location": "Tallahassee",
            "country": "United States of America (the)",
            "center_distance": 10.871626682434538,
            "id": 54
        },
        {
            "latitude": 41.48,
            "longitude": -81.68,
            "location": "Cleveland",
            "country": "United States of America (the)",
            "center_distance": 11.704640392691385,
            "id": 13
        },
        {
            "latitude": 35.2,
            "longitude": -80.83,
            "location": "Charlotte",
            "country": "United States of America (the)",
            "center_distance": 12.022495444882601,
            "id": 10
        },
        {
            "latitude": 39.77,
            "longitude": -104.87,
            "location": "Aurora",
            "country": "United States of America (the)",
            "center_distance": 12.448215403109865,
            "id": 16
        },
        {
            "latitude": 40.3,
            "longitude": -80.13,
            "location": "Thompsonville",
            "country": "United States of America (the)",
            "center_distance": 12.851726085973421,
            "id": 39
        },
        {
            "latitude": 36.08,
            "longitude": -79.83,
            "location": "Greensboro",
            "country": "United States of America (the)",
            "center_distance": 12.88742371676963,
            "id": 19
        },
        {
            "latitude": 30.33,
            "longitude": -81.66,
            "location": "Jacksonville",
            "country": "United States of America (the)",
            "center_distance": 13.066576319840744,
            "id": 22
        },
        {
            "latitude": 27.96,
            "longitude": -82.48,
            "location": "Tampa",
            "country": "United States of America (the)",
            "center_distance": 13.874599095309238,
            "id": 55
        },
        {
            "latitude": 35.82,
            "longitude": -78.66,
            "location": "West Raleigh",
            "country": "United States of America (the)",
            "center_distance": 14.078566927149337,
            "id": 42
        },
        {
            "latitude": 35.12,
            "longitude": -106.62,
            "location": "Lee Acres",
            "country": "United States of America (the)",
            "center_distance": 14.154702400812067,
            "id": 2
        },
        {
            "latitude": 42.89,
            "longitude": -78.86,
            "location": "Buffalo",
            "country": "United States of America (the)",
            "center_distance": 14.84317138357646,
            "id": 9
        },
        {
            "latitude": 31.85,
            "longitude": -106.44,
            "location": "Fort Bliss",
            "country": "United States of America (the)",
            "center_distance": 14.864415563874505,
            "id": 18
        },
        {
            "latitude": 38.91,
            "longitude": -77.02,
            "location": "Washington, D.C.",
            "country": "United States of America (the)",
            "center_distance": 15.702780965661994,
            "id": 59
        },
        {
            "latitude": 39.3,
            "longitude": -76.61,
            "location": "Baltimore",
            "country": "United States of America (the)",
            "center_distance": 16.15218943019459,
            "id": 4
        },
        {
            "latitude": 26.75,
            "longitude": -80.13,
            "location": "Schall Circle",
            "country": "United States of America (the)",
            "center_distance": 16.435622289878662,
            "id": 60
        },
        {
            "latitude": 25.78,
            "longitude": -80.21,
            "location": "Miami",
            "country": "United States of America (the)",
            "center_distance": 17.021493766868886,
            "id": 28
        },
        {
            "latitude": 41.4,
            "longitude": -75.67,
            "location": "Scranton",
            "country": "United States of America (the)",
            "center_distance": 17.445039697735183,
            "id": 50
        },
        {
            "latitude": 43.04,
            "longitude": -76.14,
            "location": "Syracuse",
            "country": "United States of America (the)",
            "center_distance": 17.447202642703402,
            "id": 53
        },
        {
            "latitude": 40.01,
            "longitude": -75.13,
            "location": "Philadelphia",
            "country": "United States of America (the)",
            "center_distance": 17.71344781201249,
            "id": 37
        },
        {
            "latitude": 45.79,
            "longitude": -108.54,
            "location": "Billings",
            "country": "United States of America (the)",
            "center_distance": 17.96998228682734,
            "id": 6
        },
        {
            "latitude": 40.72,
            "longitude": -74.17,
            "location": "Newark",
            "country": "United States of America (the)",
            "center_distance": 18.776017062258525,
            "id": 34
        },
        {
            "latitude": 32.2,
            "longitude": -110.89,
            "location": "Tucson",
            "country": "United States of America (the)",
            "center_distance": 18.96640758610394,
            "id": 57
        },
        {
            "latitude": 40.67,
            "longitude": -73.94,
            "location": "Brooklyn",
            "country": "United States of America (the)",
            "center_distance": 18.993755729771387,
            "id": 33
        },
        {
            "latitude": 42.67,
            "longitude": -73.8,
            "location": "West Albany",
            "country": "United States of America (the)",
            "center_distance": 19.573156193851062,
            "id": 1
        },
        {
            "latitude": 40.78,
            "longitude": -111.93,
            "location": "Salt Lake City",
            "country": "United States of America (the)",
            "center_distance": 19.574514639931383,
            "id": 44
        },
        {
            "latitude": 33.54,
            "longitude": -112.07,
            "location": "Phoenix",
            "country": "United States of America (the)",
            "center_distance": 19.79970513388741,
            "id": 38
        },
        {
            "latitude": 41.77,
            "longitude": -72.68,
            "location": "Hartford",
            "country": "United States of America (the)",
            "center_distance": 20.442777943703163,
            "id": 20
        },
        {
            "latitude": 41.82,
            "longitude": -71.42,
            "location": "Providence",
            "country": "United States of America (the)",
            "center_distance": 21.685442891232128,
            "id": 41
        },
        {
            "latitude": 42.34,
            "longitude": -71.02,
            "location": "South Boston",
            "country": "United States of America (the)",
            "center_distance": 22.187190149323182,
            "id": 8
        },
        {
            "latitude": 36.21,
            "longitude": -115.22,
            "location": "Las Vegas",
            "country": "United States of America (the)",
            "center_distance": 22.601419499422764,
            "id": 24
        },
        {
            "latitude": 32.81,
            "longitude": -117.14,
            "location": "San Diego",
            "country": "United States of America (the)",
            "center_distance": 24.916250454717716,
            "id": 46
        },
        {
            "latitude": 34.11,
            "longitude": -118.41,
            "location": "Beverly Hills",
            "country": "United States of America (the)",
            "center_distance": 25.969178399060308,
            "id": 26
        },
        {
            "latitude": 34.43,
            "longitude": -119.72,
            "location": "Mission Canyon",
            "country": "United States of America (the)",
            "center_distance": 27.232406003183424,
            "id": 49
        },
        {
            "latitude": 38.57,
            "longitude": -121.47,
            "location": "Sacramento",
            "country": "United States of America (the)",
            "center_distance": 28.843980308819273,
            "id": 43
        },
        {
            "latitude": 37.3,
            "longitude": -121.85,
            "location": "Seven Trees",
            "country": "United States of America (the)",
            "center_distance": 29.200331677149723,
            "id": 48
        },
        {
            "latitude": 37.77,
            "longitude": -122.22,
            "location": "Alameda",
            "country": "United States of America (the)",
            "center_distance": 29.572504403959776,
            "id": 35
        },
        {
            "latitude": 37.66,
            "longitude": -122.42,
            "location": "South San Francisco",
            "country": "United States of America (the)",
            "center_distance": 29.771318077229196,
            "id": 47
        },
        {
            "latitude": 45.54,
            "longitude": -122.66,
            "location": "Portland",
            "country": "United States of America (the)",
            "center_distance": 31.095008496362997,
            "id": 40
        },
        {
            "latitude": 47.62,
            "longitude": -122.35,
            "location": "Seattle",
            "country": "United States of America (the)",
            "center_distance": 31.40996301688718,
            "id": 51
        }
    ],
    "links": [
        {
            "length": 692.2305442024199,
            "source": 25,
            "target": 15
        },
        {
            "length": 794.4157650142279,
            "source": 25,
            "target": 31
        },
        {
            "length": 392.4172735609479,
            "source": 23,
            "target": 36
        },
        {
            "length": 588.3970620651321,
            "source": 23,
            "target": 52
        },
        {
            "length": 522.8841133936307,
            "source": 23,
            "target": 58
        },
        {
            "length": 625.3127672759775,
            "source": 52,
            "target": 11
        },
        {
            "length": 592.0659805378166,
            "source": 52,
            "target": 27
        },
        {
            "length": 569.2104671355128,
            "source": 58,
            "target": 15
        },
        {
            "length": 1150.060659340371,
            "source": 36,
            "target": 16
        },
        {
            "length": 701.4382119026502,
            "source": 36,
            "target": 30
        },
        {
            "length": 440.3404155304033,
            "source": 31,
            "target": 7
        },
        {
            "length": 368.7815621728676,
            "source": 31,
            "target": 27
        },
        {
            "length": 1371.501042248372,
            "source": 15,
            "target": 18
        },
        {
            "length": 540.7443095750185,
            "source": 15,
            "target": 21
        },
        {
            "length": 573.7511926869859,
            "source": 11,
            "target": 17
        },
        {
            "length": 206.5925505406844,
            "source": 11,
            "target": 29
        },
        {
            "length": 221.7967591215856,
            "source": 27,
            "target": 12
        },
        {
            "length": 862.7412312203899,
            "source": 27,
            "target": 19
        },
        {
            "length": 332.680102731789,
            "source": 7,
            "target": 3
        },
        {
            "length": 727.852495381869,
            "source": 7,
            "target": 32
        },
        {
            "length": 624.9931020391931,
            "source": 5,
            "target": 21
        },
        {
            "length": 184.1306600662405,
            "source": 5,
            "target": 32
        },
        {
            "length": 710.1948929812369,
            "source": 29,
            "target": 30
        },
        {
            "length": 1500.0,
            "source": 30,
            "target": 6
        },
        {
            "length": 816.4428672515087,
            "source": 32,
            "target": 54
        },
        {
            "length": 455.3415831062795,
            "source": 21,
            "target": 45
        },
        {
            "length": 241.4425504668291,
            "source": 12,
            "target": 14
        },
        {
            "length": 971.0078042911667,
            "source": 12,
            "target": 59
        },
        {
            "length": 548.8751758348044,
            "source": 3,
            "target": 10
        },
        {
            "length": 692.4221682381029,
            "source": 3,
            "target": 22
        },
        {
            "length": 1205.251762558004,
            "source": 45,
            "target": 18
        },
        {
            "length": 298.6107787759692,
            "source": 14,
            "target": 13
        },
        {
            "length": 368.2767791773771,
            "source": 14,
            "target": 39
        },
        {
            "length": 238.9797282510817,
            "source": 56,
            "target": 13
        },
        {
            "length": 134.0118064231898,
            "source": 56,
            "target": 17
        },
        {
            "length": 492.4633413097939,
            "source": 54,
            "target": 55
        },
        {
            "length": 420.4101442419924,
            "source": 13,
            "target": 9
        },
        {
            "length": 199.791462447424,
            "source": 10,
            "target": 19
        },
        {
            "length": 809.4145325534123,
            "source": 16,
            "target": 2
        },
        {
            "length": 913.8032870404954,
            "source": 16,
            "target": 44
        },
        {
            "length": 591.7709555906412,
            "source": 39,
            "target": 50
        },
        {
            "length": 600.8296588818636,
            "source": 19,
            "target": 59
        },
        {
            "length": 163.8201680080553,
            "source": 19,
            "target": 42
        },
        {
            "length": 1006.965079457857,
            "source": 22,
            "target": 42
        },
        {
            "length": 637.7888339400237,
            "source": 22,
            "target": 60
        },
        {
            "length": 496.2376927797654,
            "source": 55,
            "target": 28
        },
        {
            "length": 545.9852392418906,
            "source": 2,
            "target": 18
        },
        {
            "length": 332.9126622058951,
            "source": 9,
            "target": 53
        },
        {
            "length": 631.9273827329334,
            "source": 18,
            "target": 57
        },
        {
            "length": 83.94848325643021,
            "source": 59,
            "target": 4
        },
        {
            "length": 223.9229913670558,
            "source": 4,
            "target": 37
        },
        {
            "length": 162.2304870571746,
            "source": 60,
            "target": 28
        },
        {
            "length": 249.3908132982982,
            "source": 50,
            "target": 33
        },
        {
            "length": 241.6849987294012,
            "source": 50,
            "target": 37
        },
        {
            "length": 279.6309252040753,
            "source": 50,
            "target": 53
        },
        {
            "length": 292.6849747787813,
            "source": 53,
            "target": 1
        },
        {
            "length": 170.0220781118831,
            "source": 37,
            "target": 34
        },
        {
            "length": 1500.0,
            "source": 6,
            "target": 51
        },
        {
            "length": 30.2578822090377,
            "source": 34,
            "target": 33
        },
        {
            "length": 277.9855344612622,
            "source": 57,
            "target": 38
        },
        {
            "length": 242.1724962296988,
            "source": 33,
            "target": 20
        },
        {
            "length": 346.2217223250269,
            "source": 1,
            "target": 8
        },
        {
            "length": 874.7369853286173,
            "source": 44,
            "target": 24
        },
        {
            "length": 1419.201241565692,
            "source": 44,
            "target": 35
        },
        {
            "length": 1500.0,
            "source": 44,
            "target": 51
        },
        {
            "length": 619.6915974875188,
            "source": 38,
            "target": 24
        },
        {
            "length": 718.1185416935557,
            "source": 38,
            "target": 46
        },
        {
            "length": 156.9006474382746,
            "source": 20,
            "target": 41
        },
        {
            "length": 99.8719935713942,
            "source": 41,
            "target": 8
        },
        {
            "length": 967.908016387662,
            "source": 24,
            "target": 35
        },
        {
            "length": 558.4197669208359,
            "source": 24,
            "target": 26
        },
        {
            "length": 279.7176545872397,
            "source": 46,
            "target": 26
        },
        {
            "length": 188.2867772209745,
            "source": 26,
            "target": 49
        },
        {
            "length": 558.5623007690411,
            "source": 49,
            "target": 48
        },
        {
            "length": 165.7594095174395,
            "source": 43,
            "target": 35
        },
        {
            "length": 1171.807412284644,
            "source": 43,
            "target": 40
        },
        {
            "length": 96.42305506654048,
            "source": 48,
            "target": 47
        },
        {
            "length": 32.1399984010479,
            "source": 35,
            "target": 47
        },
        {
            "length": 348.7428861098309,
            "source": 40,
            "target": 51
        }
    ]
}