{
    "directed": false,
    "multigraph": false,
    "graph": {},
    "nodes": [
        {
            "latitude": 44.65,
            "longitude": -63.57,
            "location": "Halifax",
            "country": "Canada",
            "center_distance": 5.27308943228839,
            "id": 40
        },
        {
            "latitude": 45.37,
            "longitude": -63.27,
            "location": "Truro",
            "country": "Canada",
            "center_distance": 5.276066331510286,
            "id": 41
        },
        {
            "latitude": 46.12,
            "longitude": -64.8,
            "location": "Moncton",
            "country": "Canada",
            "center_distance": 6.979820542279072,
            "id": 42
        },
        {
            "latitude": 47.37,
            "longitude": -68.33,
            "location": "Edmundston",
            "country": "Canada",
            "center_distance": 10.704595049780234,
            "id": 43
        },
        {
            "latitude": 42.36,
            "longitude": -71.06,
            "location": "Boston",
            "country": "United States of America (the)",
            "center_distance": 12.502542854207263,
            "id": 37
        },
        {
            "latitude": 46.76,
            "longitude": -71.3,
            "location": "L'Ancienne-Lorette",
            "country": "Canada",
            "center_distance": 13.280520864223005,
            "id": 36
        },
        {
            "latitude": 41.05,
            "longitude": -73.54,
            "location": "Stamford",
            "country": "United States of America (the)",
            "center_distance": 15.090162311121981,
            "id": 38
        },
        {
            "latitude": 42.65,
            "longitude": -73.76,
            "location": "Albany",
            "country": "United States of America (the)",
            "center_distance": 15.191070940254848,
            "id": 10
        },
        {
            "latitude": 45.51,
            "longitude": -73.59,
            "location": "Montreal",
            "country": "Canada",
            "center_distance": 15.231303927462125,
            "id": 9
        },
        {
            "latitude": 41.03,
            "longitude": -73.76,
            "location": "White Plains",
            "country": "United States of America (the)",
            "center_distance": 15.310922063189496,
            "id": 39
        },
        {
            "latitude": 40.71,
            "longitude": -74.01,
            "location": "New York City",
            "country": "United States of America (the)",
            "center_distance": 15.602038826933432,
            "id": 12
        },
        {
            "latitude": 40.74,
            "longitude": -74.17,
            "location": "Newark",
            "country": "United States of America (the)",
            "center_distance": 15.756100181060946,
            "id": 28
        },
        {
            "latitude": 39.95,
            "longitude": -75.16,
            "location": "Philadelphia",
            "country": "United States of America (the)",
            "center_distance": 16.860104592732892,
            "id": 33
        },
        {
            "latitude": 39.29,
            "longitude": -76.61,
            "location": "Baltimore",
            "country": "United States of America (the)",
            "center_distance": 18.408960300101775,
            "id": 24
        },
        {
            "latitude": 38.9,
            "longitude": -77.04,
            "location": "Washington, D.C.",
            "country": "United States of America (the)",
            "center_distance": 18.910535360814357,
            "id": 25
        },
        {
            "latitude": 38.93,
            "longitude": -77.18,
            "location": "McLean",
            "country": "United States of America (the)",
            "center_distance": 19.040895870655312,
            "id": 32
        },
        {
            "latitude": 39.04,
            "longitude": -77.49,
            "location": "Ashburn",
            "country": "United States of America (the)",
            "center_distance": 19.321290986071787,
            "id": 31
        },
        {
            "latitude": 37.55,
            "longitude": -77.46,
            "location": "Richmond",
            "country": "United States of America (the)",
            "center_distance": 19.64954352752646,
            "id": 11
        },
        {
            "latitude": 42.89,
            "longitude": -78.88,
            "location": "Buffalo",
            "country": "United States of America (the)",
            "center_distance": 20.307886805390027,
            "id": 5
        },
        {
            "latitude": 43.7,
            "longitude": -79.42,
            "location": "Toronto",
            "country": "Canada",
            "center_distance": 20.860572191598965,
            "id": 8
        },
        {
            "latitude": 35.77,
            "longitude": -78.64,
            "location": "Raleigh",
            "country": "United States of America (the)",
            "center_distance": 21.31969915737349,
            "id": 1
        },
        {
            "latitude": 40.44,
            "longitude": -80.0,
            "location": "Pittsburgh",
            "country": "United States of America (the)",
            "center_distance": 21.576380003320864,
            "id": 30
        },
        {
            "latitude": 41.5,
            "longitude": -81.7,
            "location": "Cleveland",
            "country": "United States of America (the)",
            "center_distance": 23.174297744149595,
            "id": 6
        },
        {
            "latitude": 35.23,
            "longitude": -80.84,
            "location": "Charlotte",
            "country": "United States of America (the)",
            "center_distance": 23.573997877629857,
            "id": 4
        },
        {
            "latitude": 33.75,
            "longitude": -84.39,
            "location": "Atlanta",
            "country": "United States of America (the)",
            "center_distance": 27.414094441504073,
            "id": 3
        },
        {
            "latitude": 25.77,
            "longitude": -80.19,
            "location": "Miami",
            "country": "United States of America (the)",
            "center_distance": 27.62441114356714,
            "id": 2
        },
        {
            "latitude": 27.95,
            "longitude": -82.46,
            "location": "Tampa",
            "country": "United States of America (the)",
            "center_distance": 28.216543295682733,
            "id": 45
        },
        {
            "latitude": 41.85,
            "longitude": -87.65,
            "location": "Chicago",
            "country": "United States of America (the)",
            "center_distance": 29.09923231319885,
            "id": 7
        },
        {
            "latitude": 29.76,
            "longitude": -95.36,
            "location": "Houston",
            "country": "United States of America (the)",
            "center_distance": 39.087040660973685,
            "id": 44
        },
        {
            "latitude": 32.78,
            "longitude": -96.81,
            "location": "Dallas",
            "country": "United States of America (the)",
            "center_distance": 39.57178209530938,
            "id": 53
        },
        {
            "latitude": 39.74,
            "longitude": -104.98,
            "location": "Denver",
            "country": "United States of America (the)",
            "center_distance": 46.51988692707757,
            "id": 47
        },
        {
            "latitude": 53.34,
            "longitude": -6.27,
            "location": "Rathmines",
            "country": "Ireland",
            "center_distance": 53.32071789714173,
            "id": 34
        },
        {
            "latitude": 55.2,
            "longitude": -6.65,
            "location": "Portrush",
            "country": "United Kingdom of Great Britain and Northern Ireland (the)",
            "center_distance": 53.34356524730032,
            "id": 23
        },
        {
            "latitude": 54.58,
            "longitude": -5.93,
            "location": "Belfast",
            "country": "United Kingdom of Great Britain and Northern Ireland (the)",
            "center_distance": 53.907694330308416,
            "id": 35
        },
        {
            "latitude": 33.45,
            "longitude": -112.07,
            "location": "Phoenix",
            "country": "United States of America (the)",
            "center_distance": 54.33788560280528,
            "id": 52
        },
        {
            "latitude": 53.65,
            "longitude": -3.01,
            "location": "Southport",
            "country": "United Kingdom of Great Britain and Northern Ireland (the)",
            "center_distance": 56.57971254929553,
            "id": 15
        },
        {
            "latitude": 36.17,
            "longitude": -115.14,
            "location": "Las Vegas",
            "country": "United States of America (the)",
            "center_distance": 56.97478080372588,
            "id": 51
        },
        {
            "latitude": 53.48,
            "longitude": -2.24,
            "location": "Manchester",
            "country": "United Kingdom of Great Britain and Northern Ireland (the)",
            "center_distance": 57.30462268957777,
            "id": 16
        },
        {
            "latitude": 51.46,
            "longitude": -0.97,
            "location": "Reading",
            "country": "United Kingdom of Great Britain and Northern Ireland (the)",
            "center_distance": 58.224820928543096,
            "id": 17
        },
        {
            "latitude": 51.43,
            "longitude": -0.55,
            "location": "Egham",
            "country": "United Kingdom of Great Britain and Northern Ireland (the)",
            "center_distance": 58.63602537826818,
            "id": 19
        },
        {
            "latitude": 51.51,
            "longitude": -0.13,
            "location": "London",
            "country": "United Kingdom of Great Britain and Northern Ireland (the)",
            "center_distance": 59.06317673259554,
            "id": 18
        },
        {
            "latitude": 32.72,
            "longitude": -117.16,
            "location": "San Diego",
            "country": "United States of America (the)",
            "center_distance": 59.47731066113924,
            "id": 50
        },
        {
            "latitude": 34.05,
            "longitude": -118.24,
            "location": "Los Angeles",
            "country": "United States of America (the)",
            "center_distance": 60.33054624232041,
            "id": 49
        },
        {
            "latitude": 48.85,
            "longitude": 2.35,
            "location": "Paris",
            "country": "France",
            "center_distance": 61.205527871036544,
            "id": 21
        },
        {
            "latitude": 50.31,
            "longitude": 2.95,
            "location": "Biache-Saint-Vaast",
            "country": "France",
            "center_distance": 61.958772723835715,
            "id": 20
        },
        {
            "latitude": 50.85,
            "longitude": 4.35,
            "location": "Brussels",
            "country": "Belgium",
            "center_distance": 63.41397709518647,
            "id": 22
        },
        {
            "latitude": 47.61,
            "longitude": -122.33,
            "location": "Seattle",
            "country": "United States of America (the)",
            "center_distance": 63.926475281938025,
            "id": 46
        },
        {
            "latitude": 37.77,
            "longitude": -122.42,
            "location": "San Francisco",
            "country": "United States of America (the)",
            "center_distance": 64.05900183078987,
            "id": 48
        },
        {
            "latitude": 52.37,
            "longitude": 4.89,
            "location": "Amsterdam",
            "country": "Netherlands (Kingdom of the)",
            "center_distance": 64.15489769749465,
            "id": 13
        },
        {
            "latitude": 51.22,
            "longitude": 6.78,
            "location": "Dusseldorf",
            "country": "Germany",
            "center_distance": 65.87115416786162,
            "id": 14
        },
        {
            "latitude": 48.58,
            "longitude": 7.74,
            "location": "Strasbourg",
            "country": "France",
            "center_distance": 66.54928649157907,
            "id": 29
        },
        {
            "latitude": 49.49,
            "longitude": 8.46,
            "location": "Ludwigshafen am Rhein",
            "country": "Germany",
            "center_distance": 67.34877120988669,
            "id": 26
        },
        {
            "latitude": 50.12,
            "longitude": 8.68,
            "location": "Frankfurt am Main",
            "country": "Germany",
            "center_distance": 67.63145584216504,
            "id": 27
        }
    ],
    "links": [
        {
            "length": 5142.067713095452,
            "source": 40,
            "target": 23
        },
        {
            "length": 5213.839550161375,
            "source": 40,
            "target": 34
        },
        {
            "length": 982.8418925334275,
            "source": 40,
            "target": 37
        },
        {
            "length": 125.1923137070835,
            "source": 40,
            "target": 41
        },
        {
            "length": 217.6249509495196,
            "source": 41,
            "target": 42
        },
        {
            "length": 454.0821377745199,
            "source": 42,
            "target": 43
        },
        {
            "length": 352.411710944936,
            "source": 43,
            "target": 36
        },
        {
            "length": 335.4884708932951,
            "source": 37,
            "target": 10
        },
        {
            "length": 459.728758316418,
            "source": 37,
            "target": 12
        },
        {
            "length": 378.2724731274459,
            "source": 37,
            "target": 38
        },
        {
            "length": 336.9080660104276,
            "source": 36,
            "target": 9
        },
        {
            "length": 82.03035170425309,
            "source": 38,
            "target": 12
        },
        {
            "length": 27.87704634020835,
            "source": 38,
            "target": 39
        },
        {
            "length": 628.0712841529555,
            "source": 10,
            "target": 5
        },
        {
            "length": 477.4605770094612,
            "source": 10,
            "target": 9
        },
        {
            "length": 325.0720000910152,
            "source": 10,
            "target": 12
        },
        {
            "length": 755.0357670265992,
            "source": 9,
            "target": 8
        },
        {
            "length": 70.79952412600834,
            "source": 39,
            "target": 28
        },
        {
            "length": 1500.0,
            "source": 12,
            "target": 7
        },
        {
            "length": 193.5165266446945,
            "source": 12,
            "target": 33
        },
        {
            "length": 4919.023017849034,
            "source": 12,
            "target": 49
        },
        {
            "length": 20.83436718327859,
            "source": 12,
            "target": 28
        },
        {
            "length": 510.74493402578,
            "source": 28,
            "target": 31
        },
        {
            "length": 182.2082908548479,
            "source": 28,
            "target": 33
        },
        {
            "length": 336.1009376453503,
            "source": 33,
            "target": 31
        },
        {
            "length": 645.5466686962703,
            "source": 24,
            "target": 1
        },
        {
            "length": 1392.312707704519,
            "source": 24,
            "target": 3
        },
        {
            "length": 95.11734549397386,
            "source": 24,
            "target": 32
        },
        {
            "length": 85.61340860642284,
            "source": 24,
            "target": 25
        },
        {
            "length": 474.4497917256419,
            "source": 24,
            "target": 30
        },
        {
            "length": 231.7964268611971,
            "source": 25,
            "target": 11
        },
        {
            "length": 18.84529945954755,
            "source": 25,
            "target": 32
        },
        {
            "length": 44.18098870812758,
            "source": 32,
            "target": 31
        },
        {
            "length": 397.6649920225643,
            "source": 31,
            "target": 30
        },
        {
            "length": 336.2521540699969,
            "source": 11,
            "target": 1
        },
        {
            "length": 418.5080080999496,
            "source": 5,
            "target": 6
        },
        {
            "length": 150.1652468643198,
            "source": 5,
            "target": 8
        },
        {
            "length": 312.0079821457963,
            "source": 1,
            "target": 4
        },
        {
            "length": 277.6478760498783,
            "source": 30,
            "target": 6
        },
        {
            "length": 988.8431894766425,
            "source": 30,
            "target": 7
        },
        {
            "length": 743.4071200946746,
            "source": 6,
            "target": 7
        },
        {
            "length": 1500.0,
            "source": 4,
            "target": 2
        },
        {
            "length": 546.8613702582421,
            "source": 4,
            "target": 3
        },
        {
            "length": 1500.0,
            "source": 3,
            "target": 44
        },
        {
            "length": 1006.029022461507,
            "source": 3,
            "target": 45
        },
        {
            "length": 496.2580235875224,
            "source": 2,
            "target": 45
        },
        {
            "length": 1843.716434385458,
            "source": 7,
            "target": 47
        },
        {
            "length": 1614.90805684733,
            "source": 7,
            "target": 53
        },
        {
            "length": 2040.927647104074,
            "source": 44,
            "target": 52
        },
        {
            "length": 544.4600499700148,
            "source": 44,
            "target": 53
        },
        {
            "length": 2051.773895986218,
            "source": 47,
            "target": 46
        },
        {
            "length": 1906.958816527235,
            "source": 47,
            "target": 48
        },
        {
            "length": 327.5450566295908,
            "source": 34,
            "target": 15
        },
        {
            "length": 209.4958298434635,
            "source": 34,
            "target": 35
        },
        {
            "length": 437.6197305864189,
            "source": 23,
            "target": 15
        },
        {
            "length": 124.3549884728543,
            "source": 23,
            "target": 35
        },
        {
            "length": 861.3692628497527,
            "source": 52,
            "target": 49
        },
        {
            "length": 721.5882097187069,
            "source": 52,
            "target": 50
        },
        {
            "length": 81.3752641478294,
            "source": 15,
            "target": 16
        },
        {
            "length": 551.2511575012703,
            "source": 51,
            "target": 49
        },
        {
            "length": 360.7711526284822,
            "source": 16,
            "target": 17
        },
        {
            "length": 87.64367488816515,
            "source": 17,
            "target": 18
        },
        {
            "length": 43.94723068173993,
            "source": 17,
            "target": 19
        },
        {
            "length": 45.63199352589585,
            "source": 19,
            "target": 18
        },
        {
            "length": 413.0046486126816,
            "source": 19,
            "target": 20
        },
        {
            "length": 268.0139459776118,
            "source": 50,
            "target": 49
        },
        {
            "length": 838.7553033988663,
            "source": 49,
            "target": 48
        },
        {
            "length": 252.0112455707658,
            "source": 21,
            "target": 20
        },
        {
            "length": 594.7530864659984,
            "source": 21,
            "target": 29
        },
        {
            "length": 173.4854328963199,
            "source": 20,
            "target": 22
        },
        {
            "length": 259.619106832056,
            "source": 22,
            "target": 13
        },
        {
            "length": 1500.0,
            "source": 46,
            "target": 48
        },
        {
            "length": 273.4852503221112,
            "source": 13,
            "target": 14
        },
        {
            "length": 272.0178075479447,
            "source": 14,
            "target": 27
        },
        {
            "length": 170.9835780553678,
            "source": 29,
            "target": 26
        },
        {
            "length": 107.7146959898469,
            "source": 26,
            "target": 27
        }
    ]
}