{
    "directed": false,
    "multigraph": false,
    "graph": {},
    "nodes": [
        {
            "latitude": 38.6280278,
            "longitude": -90.1910154,
            "location": "St Louis, Missouri",
            "country": "USA",
            "center_distance": 1.0085011088235705,
            "id": 39
        },
        {
            "latitude": 39.7990175,
            "longitude": -89.6439575,
            "location": "Springfield, Illinois",
            "country": "USA",
            "center_distance": 2.3003568377379073,
            "id": 100
        },
        {
            "latitude": 35.1460249,
            "longitude": -90.0517638,
            "location": "Memphis, Tennessee",
            "country": "USA",
            "center_distance": 2.6597309902726507,
            "id": 38
        },
        {
            "latitude": 40.6938609,
            "longitude": -89.5891008,
            "location": "Peoria, Illinois",
            "country": "USA",
            "center_distance": 3.1464850882991446,
            "id": 44
        },
        {
            "latitude": 34.7465071,
            "longitude": -92.2896267,
            "location": "Little Rock, Arkansas",
            "country": "USA",
            "center_distance": 3.404115625828799,
            "id": 37
        },
        {
            "latitude": 39.100105,
            "longitude": -94.5781416,
            "location": "Kansas City, Missouri",
            "country": "USA",
            "center_distance": 4.148970092949325,
            "id": 25
        },
        {
            "latitude": 36.1622767,
            "longitude": -86.7742984,
            "location": "Nashville, Tennessee",
            "country": "USA",
            "center_distance": 4.192091115869826,
            "id": 56
        },
        {
            "latitude": 41.5868654,
            "longitude": -93.6249494,
            "location": "Des Moines, Iowa",
            "country": "USA",
            "center_distance": 4.86058681767544,
            "id": 40
        },
        {
            "latitude": 38.2542376,
            "longitude": -85.759407,
            "location": "Louisville, Kentucky",
            "country": "USA",
            "center_distance": 4.9280856671353135,
            "id": 52
        },
        {
            "latitude": 39.7683331,
            "longitude": -86.1583502,
            "location": "Indianapolis, Indiana",
            "country": "USA",
            "center_distance": 4.939540660863422,
            "id": 50
        },
        {
            "latitude": 41.8755616,
            "longitude": -87.6244212,
            "location": "Chicago, Illinois",
            "country": "USA",
            "center_distance": 5.1339481192085685,
            "id": 43
        },
        {
            "latitude": 32.2998686,
            "longitude": -90.1830408,
            "location": "Jackson, Mississippi",
            "country": "USA",
            "center_distance": 5.456280201855565,
            "id": 35
        },
        {
            "latitude": 33.5206824,
            "longitude": -86.8024326,
            "location": "Birmingham, Alabama",
            "country": "USA",
            "center_distance": 5.713504216440066,
            "id": 61
        },
        {
            "latitude": 41.6833813,
            "longitude": -86.2500066,
            "location": "South Bend, Indiana",
            "country": "USA",
            "center_distance": 5.919166627959876,
            "id": 45
        },
        {
            "latitude": 43.0386475,
            "longitude": -87.9090751,
            "location": "Milwaukee, Wisconsin",
            "country": "USA",
            "center_distance": 5.974450304696981,
            "id": 42
        },
        {
            "latitude": 35.0457219,
            "longitude": -85.3094883,
            "location": "Chattanooga, Tennessee",
            "country": "USA",
            "center_distance": 5.98853183818704,
            "id": 76
        },
        {
            "latitude": 32.5135356,
            "longitude": -93.7477839,
            "location": "Shreveport, Louisiana",
            "country": "USA",
            "center_distance": 6.066317365987495,
            "id": 34
        },
        {
            "latitude": 39.1014537,
            "longitude": -84.5124602,
            "location": "Cincinnati, Ohio",
            "country": "USA",
            "center_distance": 6.2976059986941655,
            "id": 51
        },
        {
            "latitude": 41.2587459,
            "longitude": -95.9383758,
            "location": "Omaha, Nebraska",
            "country": "USA",
            "center_distance": 6.346282634582428,
            "id": 24
        },
        {
            "latitude": 37.6922361,
            "longitude": -97.3375448,
            "location": "Wichita, Kansas",
            "country": "USA",
            "center_distance": 6.677594296245852,
            "id": 26
        },
        {
            "latitude": 32.3669656,
            "longitude": -86.3006485,
            "location": "Montgomery, Alabama",
            "country": "USA",
            "center_distance": 6.915435382410228,
            "id": 62
        },
        {
            "latitude": 35.9603948,
            "longitude": -83.9210261,
            "location": "Knoxville, Tennessee",
            "country": "USA",
            "center_distance": 6.968866210465714,
            "id": 57
        },
        {
            "latitude": 35.4729886,
            "longitude": -97.5170536,
            "location": "Oklahoma City, Oklahoma",
            "country": "USA",
            "center_distance": 7.220513071510061,
            "id": 27
        },
        {
            "latitude": 42.9632425,
            "longitude": -85.6678639,
            "location": "Grand Rapids, Michigan",
            "country": "USA",
            "center_distance": 7.228704720098281,
            "id": 46
        },
        {
            "latitude": 33.7489924,
            "longitude": -84.3902644,
            "location": "Atlanta, Georgia",
            "country": "USA",
            "center_distance": 7.42973660275021,
            "id": 60
        },
        {
            "latitude": 30.6913462,
            "longitude": -88.0437509,
            "location": "Mobile, Alabama",
            "country": "USA",
            "center_distance": 7.514111250666327,
            "id": 63
        },
        {
            "latitude": 44.9772995,
            "longitude": -93.2654692,
            "location": "Minneapolis, Minnesota",
            "country": "USA",
            "center_distance": 7.696442237957731,
            "id": 41
        },
        {
            "latitude": 29.9759983,
            "longitude": -90.0782127,
            "location": "New Orleans, Louisiana",
            "country": "USA",
            "center_distance": 7.781043313185164,
            "id": 36
        },
        {
            "latitude": 32.7762719,
            "longitude": -96.7968559,
            "location": "Dallas, Texas",
            "country": "USA",
            "center_distance": 7.889956549967786,
            "id": 28
        },
        {
            "latitude": 39.9622601,
            "longitude": -83.0007065,
            "location": "Columbus, Ohio",
            "country": "USA",
            "center_distance": 7.976571684715008,
            "id": 49
        },
        {
            "latitude": 41.6529143,
            "longitude": -83.5378173,
            "location": "Toledo, Ohio",
            "country": "USA",
            "center_distance": 8.12864160982157,
            "id": 48
        },
        {
            "latitude": 43.5476008,
            "longitude": -96.7293629,
            "location": "Sioux Falls, South Dakota",
            "country": "USA",
            "center_distance": 8.403538284903949,
            "id": 23
        },
        {
            "latitude": 32.8406946,
            "longitude": -83.6324022,
            "location": "Macon, Georgia",
            "country": "USA",
            "center_distance": 8.564175278834998,
            "id": 77
        },
        {
            "latitude": 42.3315509,
            "longitude": -83.0466403,
            "location": "Detroit, Michigan",
            "country": "USA",
            "center_distance": 8.893286449857156,
            "id": 47
        },
        {
            "latitude": 31.5491899,
            "longitude": -97.1474628,
            "location": "Waco, Texas",
            "country": "USA",
            "center_distance": 8.964006451515367,
            "id": 33
        },
        {
            "latitude": 38.3505995,
            "longitude": -81.6332812,
            "location": "Charleston, West Virginia",
            "country": "USA",
            "center_distance": 9.047757178186467,
            "id": 55
        },
        {
            "latitude": 29.7589382,
            "longitude": -95.3676974,
            "location": "Houston, Texas",
            "country": "USA",
            "center_distance": 9.261921830729976,
            "id": 32
        },
        {
            "latitude": 37.7781702,
            "longitude": -81.1881557,
            "location": "Beckley, West Virginia",
            "country": "USA",
            "center_distance": 9.472030592865712,
            "id": 58
        },
        {
            "latitude": 33.4709714,
            "longitude": -81.9748429,
            "location": "Augusta, Georgia",
            "country": "USA",
            "center_distance": 9.675619380324775,
            "id": 72
        },
        {
            "latitude": 30.4380832,
            "longitude": -84.2809332,
            "location": "Tallahassee, Florida",
            "country": "USA",
            "center_distance": 9.692385509838669,
            "id": 64
        },
        {
            "latitude": 41.4996574,
            "longitude": -81.6936772,
            "location": "Cleveland, Ohio",
            "country": "USA",
            "center_distance": 9.724570526756754,
            "id": 53
        },
        {
            "latitude": 35.2272086,
            "longitude": -80.8430827,
            "location": "Charlotte, North Carolina",
            "country": "USA",
            "center_distance": 10.132319957830319,
            "id": 59
        },
        {
            "latitude": 34.0003117,
            "longitude": -81.0331309,
            "location": "Columbia, South Carolina",
            "country": "USA",
            "center_distance": 10.326089310893021,
            "id": 73
        },
        {
            "latitude": 31.2135511,
            "longitude": -82.3540178,
            "location": "Waycross, Georgia",
            "country": "USA",
            "center_distance": 10.560465597895664,
            "id": 78
        },
        {
            "latitude": 46.877229,
            "longitude": -96.789821,
            "location": "Fargo, North Dakota",
            "country": "USA",
            "center_distance": 11.00678488278218,
            "id": 22
        },
        {
            "latitude": 40.4416941,
            "longitude": -79.9900861,
            "location": "Pittsburgh, Pennsylvania",
            "country": "USA",
            "center_distance": 11.007896227423734,
            "id": 54
        },
        {
            "latitude": 32.0790074,
            "longitude": -81.0921335,
            "location": "Savannah, Georgia",
            "country": "USA",
            "center_distance": 11.11480560867807,
            "id": 71
        },
        {
            "latitude": 29.4246002,
            "longitude": -98.4951405,
            "location": "San Antonio, Texas",
            "country": "USA",
            "center_distance": 11.421690059323433,
            "id": 29
        },
        {
            "latitude": 35.20729,
            "longitude": -101.8371192,
            "location": "Amarillo, Texas",
            "country": "USA",
            "center_distance": 11.459345811004155,
            "id": 31
        },
        {
            "latitude": 29.6519684,
            "longitude": -82.3249846,
            "location": "Gainesville, Florida",
            "country": "USA",
            "center_distance": 11.610920669486783,
            "id": 66
        },
        {
            "latitude": 30.3321838,
            "longitude": -81.655651,
            "location": "Jacksonville, Florida",
            "country": "USA",
            "center_distance": 11.656987561190144,
            "id": 65
        },
        {
            "latitude": 35.996653,
            "longitude": -78.9018053,
            "location": "Durham, North Carolina",
            "country": "USA",
            "center_distance": 11.886125188696987,
            "id": 75
        },
        {
            "latitude": 33.5855677,
            "longitude": -101.8470215,
            "location": "Lubbock, Texas",
            "country": "USA",
            "center_distance": 11.93177927726961,
            "id": 30
        },
        {
            "latitude": 35.7803977,
            "longitude": -78.6390989,
            "location": "Raleigh, North Carolina",
            "country": "USA",
            "center_distance": 12.178902632607304,
            "id": 74
        },
        {
            "latitude": 27.9658533,
            "longitude": -82.8001026,
            "location": "Clearwater, Florida",
            "country": "USA",
            "center_distance": 12.538763288528378,
            "id": 68
        },
        {
            "latitude": 42.8867166,
            "longitude": -78.8783922,
            "location": "Buffalo, New York",
            "country": "USA",
            "center_distance": 12.858691385748234,
            "id": 90
        },
        {
            "latitude": 28.5421109,
            "longitude": -81.3790304,
            "location": "Orlando, Florida",
            "country": "USA",
            "center_distance": 13.063381534533734,
            "id": 67
        },
        {
            "latitude": 37.5385087,
            "longitude": -77.43428,
            "location": "Richmond, Virginia",
            "country": "USA",
            "center_distance": 13.227272373605151,
            "id": 79
        },
        {
            "latitude": 38.8950368,
            "longitude": -77.0365427,
            "location": "Washington, DC",
            "country": "USA",
            "center_distance": 13.672823811569023,
            "id": 80
        },
        {
            "latitude": 39.7392364,
            "longitude": -104.984862,
            "location": "Denver, Colorado",
            "country": "USA",
            "center_distance": 14.464268505523766,
            "id": 19
        },
        {
            "latitude": 40.5871782,
            "longitude": -105.0770113,
            "location": "Fort Collins, Colorado",
            "country": "USA",
            "center_distance": 14.696295996829054,
            "id": 20
        },
        {
            "latitude": 26.9342246,
            "longitude": -80.0942087,
            "location": "Jupiter, Florida",
            "country": "USA",
            "center_distance": 15.109601991592369,
            "id": 70
        },
        {
            "latitude": 42.098698,
            "longitude": -75.9125187,
            "location": "Binghamton, New York",
            "country": "USA",
            "center_distance": 15.379547199569588,
            "id": 88
        },
        {
            "latitude": 41.4086874,
            "longitude": -75.6621294,
            "location": "Scranton, Pennsylvania",
            "country": "USA",
            "center_distance": 15.441272759653653,
            "id": 87
        },
        {
            "latitude": 43.0481221,
            "longitude": -76.1474244,
            "location": "Syracuse, New York",
            "country": "USA",
            "center_distance": 15.454578585405805,
            "id": 89
        },
        {
            "latitude": 40.6022059,
            "longitude": -75.4712794,
            "location": "Allentown, Pennsylvania",
            "country": "USA",
            "center_distance": 15.45701621381564,
            "id": 86
        },
        {
            "latitude": 39.9527237,
            "longitude": -75.1635262,
            "location": "Philadelphia, Pennsylvania",
            "country": "USA",
            "center_distance": 15.654412508796423,
            "id": 81
        },
        {
            "latitude": 25.7741728,
            "longitude": -80.19362,
            "location": "Miami, Florida",
            "country": "USA",
            "center_distance": 15.893849357582862,
            "id": 69
        },
        {
            "latitude": 40.2203074,
            "longitude": -74.7659,
            "location": "Trenton, New Jersey",
            "country": "USA",
            "center_distance": 16.087284877565164,
            "id": 82
        },
        {
            "latitude": 35.0841034,
            "longitude": -106.650985,
            "location": "Albuquerque, New Mexico",
            "country": "USA",
            "center_distance": 16.20917499862859,
            "id": 18
        },
        {
            "latitude": 31.7601164,
            "longitude": -106.4870404,
            "location": "El Paso, Texas",
            "country": "USA",
            "center_distance": 16.91728885674426,
            "id": 17
        },
        {
            "latitude": 40.7127281,
            "longitude": -74.0060152,
            "location": "New York, New York",
            "country": "USA",
            "center_distance": 16.918141926584635,
            "id": 83
        },
        {
            "latitude": 41.9287812,
            "longitude": -74.0023702,
            "location": "Kingston, New York",
            "country": "USA",
            "center_distance": 17.177463874709265,
            "id": 98
        },
        {
            "latitude": 41.0017643,
            "longitude": -73.6656834,
            "location": "Port Chester, New York",
            "country": "USA",
            "center_distance": 17.305487891459236,
            "id": 84
        },
        {
            "latitude": 42.6511674,
            "longitude": -73.754968,
            "location": "Albany, New York",
            "country": "USA",
            "center_distance": 17.605377565833166,
            "id": 97
        },
        {
            "latitude": 41.3082138,
            "longitude": -72.9250518,
            "location": "New Haven, Connecticut",
            "country": "USA",
            "center_distance": 18.091367720920932,
            "id": 85
        },
        {
            "latitude": 41.764582,
            "longitude": -72.6908547,
            "location": "Hartford, Connecticut",
            "country": "USA",
            "center_distance": 18.415451798453493,
            "id": 91
        },
        {
            "latitude": 42.1018764,
            "longitude": -72.5886727,
            "location": "Springfield, Massachusetts",
            "country": "USA",
            "center_distance": 18.591489383878375,
            "id": 92
        },
        {
            "latitude": 43.6084792,
            "longitude": -72.9724768,
            "location": "Rutland, Vermont",
            "country": "USA",
            "center_distance": 18.63723149031925,
            "id": 96
        },
        {
            "latitude": 42.2625621,
            "longitude": -71.8018877,
            "location": "Worcester, Massachusetts",
            "country": "USA",
            "center_distance": 19.394026764230876,
            "id": 93
        },
        {
            "latitude": 45.7874957,
            "longitude": -108.49607,
            "location": "Billings, Montana",
            "country": "USA",
            "center_distance": 19.569384404192757,
            "id": 21
        },
        {
            "latitude": 42.9956397,
            "longitude": -71.4547891,
            "location": "Manchester, New Hampshire",
            "country": "USA",
            "center_distance": 19.912689438658038,
            "id": 99
        },
        {
            "latitude": 42.3554334,
            "longitude": -71.060511,
            "location": "Boston, Massachusetts",
            "country": "USA",
            "center_distance": 20.136770215921715,
            "id": 94
        },
        {
            "latitude": 32.2228765,
            "longitude": -110.974847,
            "location": "Tucson, Arizona",
            "country": "USA",
            "center_distance": 21.049363401699498,
            "id": 16
        },
        {
            "latitude": 43.6573605,
            "longitude": -70.2586618,
            "location": "Portland, Maine",
            "country": "USA",
            "center_distance": 21.243577278288136,
            "id": 95
        },
        {
            "latitude": 40.7596198,
            "longitude": -111.886797,
            "location": "Salt Lake City, Utah",
            "country": "USA",
            "center_distance": 21.441080096177863,
            "id": 12
        },
        {
            "latitude": 33.4255117,
            "longitude": -111.940016,
            "location": "Tempe, Arizona",
            "country": "USA",
            "center_distance": 21.711959194877196,
            "id": 15
        },
        {
            "latitude": 36.1672559,
            "longitude": -115.148516,
            "location": "Las Vegas, Nevada",
            "country": "USA",
            "center_distance": 24.538575196889298,
            "id": 11
        },
        {
            "latitude": 43.6166163,
            "longitude": -116.200886,
            "location": "Boise, Idaho",
            "country": "USA",
            "center_distance": 26.209210705221153,
            "id": 13
        },
        {
            "latitude": 32.7174202,
            "longitude": -117.162772,
            "location": "San Diego, California",
            "country": "USA",
            "center_distance": 26.973521503561972,
            "id": 10
        },
        {
            "latitude": 34.0536909,
            "longitude": -118.242766,
            "location": "Los Angeles, California",
            "country": "USA",
            "center_distance": 27.82728833778494,
            "id": 9
        },
        {
            "latitude": 35.3738712,
            "longitude": -119.019463,
            "location": "Bakersfield, California",
            "country": "USA",
            "center_distance": 28.45751605766664,
            "id": 8
        },
        {
            "latitude": 47.6571934,
            "longitude": -117.42351,
            "location": "Spokane, Washington",
            "country": "USA",
            "center_distance": 28.543398075905213,
            "id": 14
        },
        {
            "latitude": 37.6393419,
            "longitude": -120.9968892,
            "location": "Modesto, California",
            "country": "USA",
            "center_distance": 30.336951746523674,
            "id": 7
        },
        {
            "latitude": 38.5810606,
            "longitude": -121.493895,
            "location": "Sacramento, California",
            "country": "USA",
            "center_distance": 30.845404458806083,
            "id": 4
        },
        {
            "latitude": 37.3361663,
            "longitude": -121.890591,
            "location": "San Jose, California",
            "country": "USA",
            "center_distance": 31.23305175665146,
            "id": 6
        },
        {
            "latitude": 37.7792588,
            "longitude": -122.4193286,
            "location": "San Francisco, California",
            "country": "USA",
            "center_distance": 31.759270014427088,
            "id": 5
        },
        {
            "latitude": 45.5202471,
            "longitude": -122.674194,
            "location": "Portland, Oregon",
            "country": "USA",
            "center_distance": 32.94706399726545,
            "id": 2
        },
        {
            "latitude": 44.0505054,
            "longitude": -123.0950506,
            "location": "Eugene, Oregon",
            "country": "USA",
            "center_distance": 33.044048251094935,
            "id": 3
        },
        {
            "latitude": 47.6038321,
            "longitude": -122.330062,
            "location": "Seattle, Washington",
            "country": "USA",
            "center_distance": 33.17191600615701,
            "id": 1
        }
    ],
    "links": [
        {
            "length": 575.115,
            "source": 39,
            "target": 25
        },
        {
            "length": 1107.645,
            "source": 39,
            "target": 27
        },
        {
            "length": 581.0699999999999,
            "source": 39,
            "target": 38
        },
        {
            "length": 554.8050000000001,
            "source": 39,
            "target": 50
        },
        {
            "length": 207.705,
            "source": 39,
            "target": 100
        },
        {
            "length": 611.5649999999999,
            "source": 39,
            "target": 56
        },
        {
            "length": 149.415,
            "source": 100,
            "target": 44
        },
        {
            "length": 475.0649999999999,
            "source": 38,
            "target": 35
        },
        {
            "length": 313.125,
            "source": 38,
            "target": 37
        },
        {
            "length": 475.395,
            "source": 38,
            "target": 56
        },
        {
            "length": 528.3149999999999,
            "source": 44,
            "target": 40
        },
        {
            "length": 315.39,
            "source": 44,
            "target": 43
        },
        {
            "length": 723.39,
            "source": 37,
            "target": 27
        },
        {
            "length": 423.915,
            "source": 37,
            "target": 34
        },
        {
            "length": 399.585,
            "source": 25,
            "target": 24
        },
        {
            "length": 430.38,
            "source": 25,
            "target": 26
        },
        {
            "length": 432.105,
            "source": 25,
            "target": 40
        },
        {
            "length": 719.6850000000001,
            "source": 25,
            "target": 27
        },
        {
            "length": 374.055,
            "source": 56,
            "target": 52
        },
        {
            "length": 386.175,
            "source": 56,
            "target": 57
        },
        {
            "length": 440.61,
            "source": 56,
            "target": 61
        },
        {
            "length": 294.465,
            "source": 40,
            "target": 24
        },
        {
            "length": 567.1800000000001,
            "source": 40,
            "target": 41
        },
        {
            "length": 257.775,
            "source": 52,
            "target": 50
        },
        {
            "length": 215.235,
            "source": 52,
            "target": 51
        },
        {
            "length": 405.525,
            "source": 50,
            "target": 49
        },
        {
            "length": 319.62,
            "source": 50,
            "target": 45
        },
        {
            "length": 197.13,
            "source": 43,
            "target": 42
        },
        {
            "length": 173.925,
            "source": 43,
            "target": 45
        },
        {
            "length": 503.22,
            "source": 35,
            "target": 34
        },
        {
            "length": 515.28,
            "source": 35,
            "target": 61
        },
        {
            "length": 387.9,
            "source": 35,
            "target": 36
        },
        {
            "length": 337.125,
            "source": 61,
            "target": 60
        },
        {
            "length": 204.855,
            "source": 61,
            "target": 62
        },
        {
            "length": 225.225,
            "source": 45,
            "target": 46
        },
        {
            "length": 337.95,
            "source": 45,
            "target": 48
        },
        {
            "length": 719.145,
            "source": 42,
            "target": 41
        },
        {
            "length": 242.52,
            "source": 76,
            "target": 57
        },
        {
            "length": 250.56,
            "source": 76,
            "target": 60
        },
        {
            "length": 430.4399999999999,
            "source": 34,
            "target": 28
        },
        {
            "length": 241.725,
            "source": 51,
            "target": 49
        },
        {
            "length": 394.995,
            "source": 51,
            "target": 55
        },
        {
            "length": 487.11,
            "source": 51,
            "target": 58
        },
        {
            "length": 529.71,
            "source": 51,
            "target": 57
        },
        {
            "length": 1174.44,
            "source": 24,
            "target": 19
        },
        {
            "length": 393.99,
            "source": 24,
            "target": 23
        },
        {
            "length": 1051.755,
            "source": 26,
            "target": 19
        },
        {
            "length": 370.935,
            "source": 26,
            "target": 27
        },
        {
            "length": 352.77,
            "source": 62,
            "target": 60
        },
        {
            "length": 373.515,
            "source": 62,
            "target": 63
        },
        {
            "length": 434.985,
            "source": 57,
            "target": 59
        },
        {
            "length": 460.65,
            "source": 27,
            "target": 28
        },
        {
            "length": 589.395,
            "source": 27,
            "target": 31
        },
        {
            "length": 338.385,
            "source": 46,
            "target": 47
        },
        {
            "length": 546.39,
            "source": 60,
            "target": 59
        },
        {
            "length": 184.695,
            "source": 60,
            "target": 77
        },
        {
            "length": 338.7,
            "source": 60,
            "target": 72
        },
        {
            "length": 316.245,
            "source": 63,
            "target": 36
        },
        {
            "length": 542.0250000000001,
            "source": 63,
            "target": 64
        },
        {
            "length": 517.215,
            "source": 41,
            "target": 22
        },
        {
            "length": 765.855,
            "source": 36,
            "target": 32
        },
        {
            "length": 542.925,
            "source": 28,
            "target": 32
        },
        {
            "length": 210.57,
            "source": 28,
            "target": 33
        },
        {
            "length": 717.705,
            "source": 28,
            "target": 30
        },
        {
            "length": 290.025,
            "source": 49,
            "target": 48
        },
        {
            "length": 305.025,
            "source": 49,
            "target": 53
        },
        {
            "length": 321.765,
            "source": 49,
            "target": 55
        },
        {
            "length": 128.535,
            "source": 48,
            "target": 47
        },
        {
            "length": 231.51,
            "source": 48,
            "target": 53
        },
        {
            "length": 555.405,
            "source": 23,
            "target": 22
        },
        {
            "length": 254.205,
            "source": 77,
            "target": 72
        },
        {
            "length": 326.085,
            "source": 77,
            "target": 78
        },
        {
            "length": 403.845,
            "source": 33,
            "target": 29
        },
        {
            "length": 408.03,
            "source": 55,
            "target": 54
        },
        {
            "length": 111.945,
            "source": 55,
            "target": 58
        },
        {
            "length": 456.99,
            "source": 32,
            "target": 29
        },
        {
            "length": 574.14,
            "source": 58,
            "target": 80
        },
        {
            "length": 497.25,
            "source": 58,
            "target": 79
        },
        {
            "length": 425.79,
            "source": 58,
            "target": 75
        },
        {
            "length": 263.1,
            "source": 72,
            "target": 71
        },
        {
            "length": 157.665,
            "source": 72,
            "target": 73
        },
        {
            "length": 304.785,
            "source": 64,
            "target": 78
        },
        {
            "length": 378.135,
            "source": 64,
            "target": 65
        },
        {
            "length": 311.355,
            "source": 64,
            "target": 66
        },
        {
            "length": 277.785,
            "source": 53,
            "target": 54
        },
        {
            "length": 417.765,
            "source": 53,
            "target": 90
        },
        {
            "length": 292.845,
            "source": 59,
            "target": 75
        },
        {
            "length": 442.05,
            "source": 73,
            "target": 74
        },
        {
            "length": 177.84,
            "source": 78,
            "target": 65
        },
        {
            "length": 230.085,
            "source": 78,
            "target": 71
        },
        {
            "length": 1359.06,
            "source": 22,
            "target": 21
        },
        {
            "length": 458.595,
            "source": 54,
            "target": 80
        },
        {
            "length": 568.6949999999999,
            "source": 54,
            "target": 87
        },
        {
            "length": 302.25,
            "source": 71,
            "target": 65
        },
        {
            "length": 704.4749999999999,
            "source": 71,
            "target": 74
        },
        {
            "length": 841.8000000000001,
            "source": 29,
            "target": 30
        },
        {
            "length": 656.79,
            "source": 31,
            "target": 18
        },
        {
            "length": 862.98,
            "source": 31,
            "target": 19
        },
        {
            "length": 270.495,
            "source": 31,
            "target": 30
        },
        {
            "length": 149.07,
            "source": 66,
            "target": 65
        },
        {
            "length": 230.805,
            "source": 66,
            "target": 67
        },
        {
            "length": 301.26,
            "source": 65,
            "target": 67
        },
        {
            "length": 611.085,
            "source": 65,
            "target": 70
        },
        {
            "length": 50.61,
            "source": 75,
            "target": 74
        },
        {
            "length": 718.995,
            "source": 30,
            "target": 17
        },
        {
            "length": 334.62,
            "source": 74,
            "target": 79
        },
        {
            "length": 229.845,
            "source": 68,
            "target": 67
        },
        {
            "length": 532.905,
            "source": 68,
            "target": 69
        },
        {
            "length": 334.38,
            "source": 90,
            "target": 89
        },
        {
            "length": 328.47,
            "source": 67,
            "target": 70
        },
        {
            "length": 232.185,
            "source": 79,
            "target": 80
        },
        {
            "length": 298.92,
            "source": 80,
            "target": 81
        },
        {
            "length": 894.705,
            "source": 19,
            "target": 12
        },
        {
            "length": 807.165,
            "source": 19,
            "target": 18
        },
        {
            "length": 141.915,
            "source": 19,
            "target": 20
        },
        {
            "length": 961.6500000000001,
            "source": 20,
            "target": 21
        },
        {
            "length": 194.055,
            "source": 70,
            "target": 69
        },
        {
            "length": 119.235,
            "source": 88,
            "target": 87
        },
        {
            "length": 238.395,
            "source": 88,
            "target": 98
        },
        {
            "length": 160.965,
            "source": 88,
            "target": 89
        },
        {
            "length": 136.65,
            "source": 87,
            "target": 86
        },
        {
            "length": 299.94,
            "source": 89,
            "target": 97
        },
        {
            "length": 115.185,
            "source": 86,
            "target": 81
        },
        {
            "length": 186.315,
            "source": 86,
            "target": 83
        },
        {
            "length": 126.66,
            "source": 82,
            "target": 83
        },
        {
            "length": 190.77,
            "source": 82,
            "target": 84
        },
        {
            "length": 779.73,
            "source": 18,
            "target": 15
        },
        {
            "length": 554.88,
            "source": 18,
            "target": 17
        },
        {
            "length": 639.48,
            "source": 17,
            "target": 16
        },
        {
            "length": 64.56,
            "source": 83,
            "target": 84
        },
        {
            "length": 458.55,
            "source": 83,
            "target": 94
        },
        {
            "length": 160.245,
            "source": 98,
            "target": 84
        },
        {
            "length": 124.29,
            "source": 98,
            "target": 97
        },
        {
            "length": 165.24,
            "source": 98,
            "target": 91
        },
        {
            "length": 176.265,
            "source": 84,
            "target": 91
        },
        {
            "length": 106.125,
            "source": 84,
            "target": 85
        },
        {
            "length": 185.925,
            "source": 97,
            "target": 96
        },
        {
            "length": 81.53999999999999,
            "source": 85,
            "target": 91
        },
        {
            "length": 211.77,
            "source": 85,
            "target": 93
        },
        {
            "length": 57.675,
            "source": 91,
            "target": 92
        },
        {
            "length": 100.875,
            "source": 92,
            "target": 93
        },
        {
            "length": 266.13,
            "source": 96,
            "target": 93
        },
        {
            "length": 327.705,
            "source": 96,
            "target": 95
        },
        {
            "length": 129.48,
            "source": 93,
            "target": 99
        },
        {
            "length": 92.745,
            "source": 93,
            "target": 94
        },
        {
            "length": 1066.635,
            "source": 21,
            "target": 14
        },
        {
            "length": 117.21,
            "source": 99,
            "target": 94
        },
        {
            "length": 182.325,
            "source": 99,
            "target": 95
        },
        {
            "length": 238.155,
            "source": 94,
            "target": 95
        },
        {
            "length": 874.53,
            "source": 16,
            "target": 10
        },
        {
            "length": 241.935,
            "source": 16,
            "target": 15
        },
        {
            "length": 1285.035,
            "source": 12,
            "target": 4
        },
        {
            "length": 876.2850000000001,
            "source": 12,
            "target": 11
        },
        {
            "length": 714.885,
            "source": 12,
            "target": 13
        },
        {
            "length": 634.155,
            "source": 15,
            "target": 11
        },
        {
            "length": 638.595,
            "source": 11,
            "target": 10
        },
        {
            "length": 831.8399999999999,
            "source": 13,
            "target": 2
        },
        {
            "length": 688.83,
            "source": 13,
            "target": 14
        },
        {
            "length": 511.98,
            "source": 10,
            "target": 8
        },
        {
            "length": 268.875,
            "source": 10,
            "target": 9
        },
        {
            "length": 737.37,
            "source": 9,
            "target": 6
        },
        {
            "length": 505.785,
            "source": 8,
            "target": 6
        },
        {
            "length": 461.55,
            "source": 8,
            "target": 7
        },
        {
            "length": 551.49,
            "source": 14,
            "target": 1
        },
        {
            "length": 170.07,
            "source": 7,
            "target": 4
        },
        {
            "length": 128.64,
            "source": 7,
            "target": 6
        },
        {
            "length": 934.0049999999999,
            "source": 4,
            "target": 3
        },
        {
            "length": 180.57,
            "source": 4,
            "target": 5
        },
        {
            "length": 101.73,
            "source": 6,
            "target": 5
        },
        {
            "length": 349.755,
            "source": 2,
            "target": 1
        },
        {
            "length": 250.155,
            "source": 2,
            "target": 3
        }
    ]
}