{
    "directed": false,
    "multigraph": false,
    "graph": {},
    "nodes": [
        {
            "latitude": 33.75,
            "longitude": -84.39,
            "location": "Atlanta",
            "country": "United States of America (the)",
            "center_distance": 3.464754312931825,
            "id": 7
        },
        {
            "latitude": 41.85,
            "longitude": -87.65,
            "location": "Chicago",
            "country": "United States of America (the)",
            "center_distance": 5.296452413008656,
            "id": 2
        },
        {
            "latitude": 38.9,
            "longitude": -77.04,
            "location": "Washington, D.C.",
            "country": "United States of America (the)",
            "center_distance": 9.203405093014354,
            "id": 5
        },
        {
            "latitude": 39.29,
            "longitude": -76.61,
            "location": "Baltimore",
            "country": "United States of America (the)",
            "center_distance": 9.714663858186308,
            "id": 4
        },
        {
            "latitude": 25.77,
            "longitude": -80.19,
            "location": "Miami",
            "country": "United States of America (the)",
            "center_distance": 12.482536699284323,
            "id": 6
        },
        {
            "latitude": 40.71,
            "longitude": -74.01,
            "location": "New York City",
            "country": "United States of America (the)",
            "center_distance": 12.610644353894385,
            "id": 3
        },
        {
            "latitude": 37.44,
            "longitude": -122.14,
            "location": "Palo Alto",
            "country": "United States of America (the)",
            "center_distance": 36.141106507574385,
            "id": 1
        }
    ],
    "links": [
        {
            "length": 4268.785450169966,
            "source": 7,
            "target": 1
        },
        {
            "length": 1417.377937950516,
            "source": 7,
            "target": 2
        },
        {
            "length": 1308.123444881084,
            "source": 7,
            "target": 5
        },
        {
            "length": 1462.933348688248,
            "source": 7,
            "target": 6
        },
        {
            "length": 1500.0,
            "source": 2,
            "target": 3
        },
        {
            "length": 4881.744183715728,
            "source": 5,
            "target": 1
        },
        {
            "length": 491.7553096743694,
            "source": 5,
            "target": 3
        },
        {
            "length": 85.61340860642284,
            "source": 5,
            "target": 4
        },
        {
            "length": 1861.74600958398,
            "source": 5,
            "target": 6
        },
        {
            "length": 407.9571918717692,
            "source": 4,
            "target": 3
        }
    ]
}